,name,categories,address,city,postal_code,province,country,latitude,longitude,websites
0,SONIC Drive In,American Restaurant and Fast Food Restaurant,800 N Canal Blvd,Thibodaux,70301,LA,US,29.814697,-90.814742,"https://locations.sonicdrivein.com/la/thibodaux/800-north-canal-boulevard.html,http://sonicdrivein.com,http://www.sonicdrivein.com"
1,Taco Bell,Fast Food Restaurant,206 Wears Valley Rd,Pigeon Forge,37863,TN,US,35.803788,-83.580553,"http://www.tacobell.com,https://locations.tacobell.com/tn/pigeon-forge/206-wears-valley-road.html?utm_source=yextandutm_campaign=yextpowerlistingsandutm_medium=referralandutm_term=026432andutm_content=website"
2,Arby's,Fast Food,3652 Parkway,Pigeon Forge,37863,TN,US,35.782339,-83.551408,"http://www.arbys.com,https://locations.arbys.com/us/tn/pigeon-forge/3652-parkway.html"
3,Steak 'n Shake,Fast Food Restaurant,2118 Mt Zion Parkway,Morrow,30260,GA,US,33.562738,-84.321143,http://www.steaknshake.com/locations/23851-steak-n-shake-mt-zion-parkway-morrow
4,Wendy's,Fast Food Restaurant,9768 Grand River Ave,Detroit,48204,MI,US,42.368823,-83.138251,http://www.wendys.com
5,Burger King,Fast Food Restaurant,13600 W McNichols Rd,Detroit,48235,MI,US,42.416819,-83.180444,"http://bk.com,http://www.bk.com"
6,Chipotle Mexican Grill,Fast Food,4111 Oceanside Blvd,Oceanside,92056,CA,US,33.205722,-117.288645,"http://www.chipotle.com,http://www.lasalsa.com"
7,7-Eleven,Fast Food Restaurants,162 Old Country Rd,Riverhead,11901,NY,US,40.937359,-72.650142,"http://www.7-eleven.com/?yext=39326,http://www.7-eleven.com"
8,Dairy Queen,Fast Food Restaurant,1407 S Stockton Ave,Monahans,79756,TX,US,31.580721,-102.891455,"http://www.dairyqueen.com,http://api.citygridmedia.com/content/places/v2/click?q=9YKflVKbY9NauPJdMy0B1gS1IhB4xv4EWw0zDoT-UWc_izWF3zs5PKGdfOHubWrvM0QwDCYwbOH2fdLi0dK5xArULcksCCbfR-WWAz9xD1AmGVAQZIom4U3n5R4DuRC8WJCtvJcNItEKoCSfzwapuGnmwGnHDpEGYXGjnN4u8zXqkiimSHFf4_dbqGRbVgNJqRG97esP_MxDChA8jm1fugloTMDPF7zOe73z7Rzg5g9Epb5tslb4Ce2O9bVs-3osjI7W1LXK0P8-ceZJLb_Zm0NuJ46OZRPXqASUtjZowHbqYHz_KHREl3SRL-RlGbE5woot3O2zSqAWVHg-OlWhMHHJ9TR1jaOXMbzQAnUcZehcpq17Fx8TdD5LnknOH2OhntcYkp-Hmhc2uj_O6yVorIqEVf5Z62kWufiQ_mpIyS3EC2lcbYW-Qo4k6KLlDUXBhz61tD0Ed-XxpaLD24rGhItu5TjcLVVa3Tx4vbMdbUZcI1ZgYjFCwkqBDsIe7zQCbZJ1aOHgTBcCkHjLqSMEJ-VSSeMC2Y1vDdmeULpiA18&placement=listing_profile&cs_user=unknown&cs_session=9e084e19d8cf38f4a2ac131f1e6b96b494a6e801"
9,Dairy Queen,Fast Food Restaurant and Ice Cream Shop,208 W Mason St,Mabank,75147,TX,US,32.36602,-96.103364,http://dairyqueen.com
10,Dairy Queen,Ice Cream Shop and Fast Food Restaurant,5801 Highway 6,Missouri City,77459,TX,US,29.570079,-95.568166,http://www.dairyqueen.com
11,Mr. Hero,Fast Food Restaurant,3454 Manchester Rd,Akron,44319,OH,US,41.005682,-81.555774,http://mrhero.com
12,Golden Chick,Fast Food Restaurants,1500 E Main St,Eastland,76448,TX,US,32.401088,-98.790162,"http://locations.goldenchick.com/tx/eastland/1202,http://goldenchick.com"
13,Carl's Jr,Fast Food Restaurant,1190 W Foothill Blvd,Azusa,91702,CA,US,34.133291,-117.924566,"http://www.carlsjr.com,http://www.carlsjr.com/"
14,Checkers,Fast Food Restaurants,601 N Main St,Summerville,29483,SC,US,33.026572,-80.169733,"https://locations.checkers.com/sc/summerville/601-n.-main-st.,https://www.checkers.com,http://www.checkers.com"
15,Rally's,Fast Food,1927 Woodville Road,Oregon,43616,OH,US,41.627298,-83.502436,http://rallys.com/
16,Togo's,Fast Food,6316 W 89th St,Los Angeles,90045,CA,US,33.955923,-118.396443,http://www.togosspeedlunch.com/
17,Rally's,Fast Food Restaurants,3105 Highway 80 E,Pearl,39208,MS,US,32.282328,-90.11677,https://locations.rallys.com/ms/pearl/3105-highway-80-e-%C2%A0
18,Checkers,Fast Food Restaurant,2860 E Paris Ave SE,Grand Rapids,49512,MI,US,42.91147,-85.56812,"https://locations.checkers.com/mi/kentwood/2860-e-paris-ave-se,https://www.checkers.com,https://www.checkers.com/,http://www.checkers.com"
19,Rally's,Fast Food Restaurant,2424 E State Road 44,Shelbyville,46176,IN,US,39.523704,-85.743659,"https://locations.rallys.com/in/shelbyville/2424-e.-state-road-44,http://www.checkers.com,http://rallys.com,http://checkers.com"
20,Checkers,Fast Food,1611 Broadway,Brooklyn,11207,NY,US,40.685506,-73.914457,"https://locations.checkers.com/ny/brooklyn/1611-broadway,http://checkers.com,http://www.checkers.com"
21,Checkers,Fast Food Restaurants,1720 Walton Way,Augusta,30904,GA,US,33.475292,-81.995946,"https://locations.checkers.com/ga/augusta/1720-walton-way,https://www.checkers.com"
22,Checkers,Fast Food Restaurant,17620 Grand River Ave,Detroit,48227,MI,US,42.400037,-83.21574,https://locations.checkers.com/mi/detroit/17620-grand-river-ave
23,Little Q Hot Pot,Fast Food Restaurants,196 Massachusetts Ave,Arlington,2474,MA,US,42.405651,-71.14212,http://littleqhotpotma.com
24,McDonald's,Fast Food,1224 State St,Schenectady,12304,NY,US,42.79792,-73.924364,"http://mcdonalds.com,http://www.mcdonalds.com/?cid=RF:YXT_FM:TP::Yext:Referral"
25,McDonald's,Fast Food Restaurant,1232 Ulster Ave,Kingston,12401,NY,US,41.967079,-73.988583,"http://mcdonalds.com,http://www.mcdonalds.com/?cid=RF:YXT_FM:TP::Yext:Referral"
26,McDonald's,Fast Food Restaurant,1188 Avenue of The Americas,New York,10036,NY,US,40.757558,-73.981671,http://mcdonalds.com/
27,McDonald's,Fast Food Restaurant,114 Delancey St,New York,10002,NY,US,40.718943,-73.988306,http://mcdonalds.com
28,McDonald's,Fast Food Restaurants,1050 Front St,Uniondale,11553,NY,US,40.709646,-73.591453,"http://mcdonalds.com,http://www.mcdonalds.com/?cid=RF:YXT_FM:TP::Yext:Referral"
29,McDonald's,Fast Food Restaurant,105 Jericho Tpke,Jericho,11753,NY,US,40.780233,-73.55934,"http://api.citygridmedia.com/content/places/v2/click?q=9YKflVKbY9NauPJdMy0B1gS1IhB4xv4ESe32aGoZZfGxPUKOAupg6AXFQsvl2-A1Ztd21x5FLKumNpUzGNTBeMk2RvPjC41ZIvgiFwjULRMf936HQ-3fDilu-Jgq-3DroFPqeb7LaXUO4XtGt4yXSJsg9W4tlLVRNocJRkydaRxa9wTgFisP8W1xHayi-pt4RT9UEBPO-64wX56BjzHLd30Vtc-E6tRn5Qu0eRc_DBQJlwYp8xTFBgQya-MzslAXqjYZJM60OQr_B_qw5j5R4po2lD4Bp7jBUJxb4mT_1yq0HrpM06V32safH8oc3ObTxX9_UKu9KEaQ7a5AB3RPweBodwruhmy6MJ1E0Fxm24zDrEGC31jcXkhlbSnNd5qVXz9k4rQUcMgo15OqXI_h7YvMn1AbfZSc1vKFfhUKB4xYwesNPYNLOd-O1d7LqWAuRfdmk9LpXp9Q4zcDWkNf4C7MeEajoEYfZru37-IFNUxi-19j6W-OiKcOftcd_UqL7Hf-CAQngzLDAOT2PALtFvXhDiuE0gq5&placement=listing_profile.c&cs_user=unknown&cs_session=fa3e41570a83c445cc822273e5417e8878250b09,http://mcdonalds.com,http://www.mcdonalds.com/?cid=RF:YXT_FM:TP::Yext:Referral"
30,McDonald's,Fast Food Restaurants,106 Wolf Rd,Albany,12205,NY,US,42.716812,-73.809319,"http://mcdonalds.com,http://www.mcdonalds.com/?cid=RF:YXT_FM:TP::Yext:Referral"
31,McDonald's,Fast Food,101 E 170th St,Bronx,10452,NY,US,40.839569,-73.915927,"http://mcdonalds.com,http://mcdonalds.com/"
32,McDonald's,Fast Food,103 Brookview Dr,Schenectady,12303,NY,US,42.741061,-73.913673,"http://mcdonalds.com,http://www.mcdonalds.com/?cid=RF:YXT_FM:TP::Yext:Referral,http://www.mcdonalds.com"
33,McDonald's,Fast Food Restaurants,1028 Mckinley Pkwy,Buffalo,14220,NY,US,42.857899,-78.825089,"http://www.mcdonalds.com/?cid=RF:YXT_FM:TP::Yext:Referral,http://mcdonalds.com"
34,McDonald's,Fast Food Restaurants,10 Main St,Tonawanda,14150,NY,US,43.021019,-78.878167,"http://mcdonalds.com,http://www.mcdonalds.com/?cid=RF:YXT_FM:TP::Yext:Referral"
35,McDonald's,Fast Food,300 Mishawum Rd,Woburn,1801,MA,US,42.503903,-71.132748,"http://mcdonalds.com,http://www.mcdonalds.com"
36,McDonald's,Fast Food Restaurant,1190 Providence Rd,Whitinsville,1588,MA,US,42.125526,-71.645913,http://www.mcdonalds.com
37,McDonald's,Fast Food,212 Main St,Wilmington,1887,MA,US,42.557448,-71.181499,"http://mcdonalds.com,http://www.mcdonalds.com/?cid=RF:YXT_FM:TP::Yext:Referral"
38,McDonald's,Fast Food,44 E Main St,Webster,1570,MA,US,42.055826,-71.873999,"http://mcdonalds.com,http://www.mcdonalds.com/?cid=RF:YXT_FM:TP::Yext:Referral"
39,McDonald's,Fast Food,789 Main St,Waltham,2451,MA,US,42.376247,-71.241667,"http://mcdonalds.com,http://www.mcdonalds.com/?cid=RF:YXT_FM:TP::Yext:Referral,http://www.mcdonalds.com"
40,McDonald's,Fast Food Restaurant,20 Main St,Townsend,1469,MA,US,42.650503,-71.662674,"http://www.mcdonalds.com/?cid=RF:YXT_FM:TP::Yext:Referral,http://mcdonalds.com"
41,McDonald's,Fast Food Restaurant,595 Main St,Walpole,2081,MA,US,42.157222,-71.243549,"http://mcdonalds.com,http://www.mcdonalds.com/?cid=RF:YXT_FM:TP::Yext:Referral,http://www.mcdonalds.com"
42,McDonald's,Fast Food,282 Winthrop St,Taunton,2780,MA,US,41.88896,-71.120789,"http://mcdonalds.com,http://www.mcdonalds.com/?cid=RF:YXT_FM:TP::Yext:Referral"
43,McDonald's,Fast Food,660 Liberty St,Springfield,1104,MA,US,42.12193,-72.584242,"http://mcdonalds.com,http://www.mcdonalds.com/?cid=RF:YXT_FM:TP::Yext:Referral,http://www.mcdonalds.com"
44,McDonald's,Fast Food Restaurants,360 Main St,Springfield,1105,MA,US,42.091561,-72.579647,"http://mcdonalds.com,http://www.mcdonalds.com/?cid=RF:YXT_FM:TP::Yext:Referral,http://www.mcdonalds.com"
45,McDonald's,Fast Food Restaurants,2392 Main St,Springfield,1107,MA,US,42.111552,-72.603359,"http://mcdonalds.com,http://www.mcdonalds.com/?cid=RF:YXT_FM:TP::Yext:Referral"
46,McDonald's,Fast Food Restaurant,1402 Allen St,Springfield,1118,MA,US,42.095053,-72.512539,"http://mcdonalds.com,http://www.mcdonalds.com/?cid=RF:YXT_FM:TP::Yext:Referral,http://www.mcdonalds.com"
47,McDonald's,Fast Food Restaurants,1610 Boston Rd,Springfield,1129,MA,US,42.142989,-72.48923,http://www.mcdonalds.com/?cid=RF:YXT_FM:TP::Yext:Referral
48,McDonald's,Fast Food Restaurants,59 W Main St,Spencer,1562,MA,US,42.23341,-72.012516,"http://mcdonalds.com,http://www.mcdonalds.com/?cid=RF:YXT_FM:TP::Yext:Referral"
49,Five Guys,Fast Food Restaurant,1433 SW 107th Ave,Miami,33174,FL,US,25.754984,-80.368058,http://fiveguys.com
50,Taco Bell,Fast Food Restaurant and Mexican Restaurant,1601 W Kirby St,Wylie,75098,TX,US,33.007329,-96.554127,http://www.tacobell.com
51,Taco Bell,Fast Food Restaurant,7425 S Broadway Ave,Tyler,75703,TX,US,32.274786,-95.306757,"https://locations.tacobell.com/tx/tyler/7425-s--broadway.html?utm_source=yextandutm_campaign=yextpowerlistingsandutm_medium=referralandutm_term=028285andutm_content=website,http://www.tacobell.com"
52,Burger King,Fast Food Restaurants,100 Business Loop 70 E,Columbia,65203,MO,US,38.964944,-92.336364,https://locations.bk.com/mo/columbia/100-east-bus-loop-70.html
53,Wendy's,Fast Food Restaurant and Burger Joint,615 Martin Luther King Jr Blvd,Savannah,31401,GA,US,32.070343,-81.101032,http://www.wendys.com
54,Wendy's,Fast Food Restaurant and Burger Joint,1123 Roswell Rd,Marietta,30062,GA,US,33.95111,-84.518962,http://www.wendys.com
55,Wendy's,Fast Food Restaurants,273 Keys Ferry St,McDonough,30253,GA,US,33.446887,-84.138326,http://www.wendys.com
56,Wendy's,Fast Food Restaurant,1117 W Spring St,Monroe,30655,GA,US,33.792748,-83.731443,"http://www.wendys.com,http://wendys.com"
57,Wendy's,Fast Food Restaurants,430 S Belair Rd,Augusta,30907,GA,US,33.486344,-82.13351,"http://wendys.com,http://www.wendys.com"
58,Wendy's,Fast Food Restaurant,2341 N Columbia St,Milledgeville,31061,GA,US,33.108582,-83.254192,"http://www.wendys.com,http://api.citygridmedia.com/content/places/v2/click?q=9YKflVKbY9NauPJdMy0B1gS1IhB4xv4EWw0zDoT-UWc_izWF3zs5PKGdfOHubWrvM0QwDCYwbOH2fdLi0dK5xArULcksCCbfR-WWAz9xD1AmGVAQZIom4U3n5R4DuRC8WJCtvJcNItEKoCSfzwapuGnmwGnHDpEGYXGjnN4u8zXqkiimSHFf4_dbqGRbVgNJYD3APfFyZb1SUEABa1jmpS3OwA6Ks1I57XZf6k02m5Dvu9lByiHtpkoNNoG8cU_ZaobcdIQRWWL0md66ueT5A43ZGYiNwtovEGOgxdPQDfBzBm_AmXzmBTBk62JzmDO7Dtx-HHkNoox5ES3Ec5dXFLuW5rWaPa1RvXLXPzhDXm3S_YlAKU2Boro-4PLACNUmcza8nrVy_fzm0xyTULUoEEZ9wFukyZHufUtWn-LoyAAUrKHW_eNWV5yj61VM-YKgztWPxr1m69CU3Xcnsy9RtabxZMeaeGXJWfgH0dotSNjDkyPtXFSEVmYtKsAZJBPQgMVY7eZIMgUPPdIqHv5K0g&placement=listing_profile&cs_user=unknown&cs_session=e403c58902631e046092996f08c79277aa889e60"
59,Wendy's,Fast Food Restaurant and Burger Joint,260 Cooper Rd,Loganville,30052,GA,US,33.880381,-83.939657,"http://www.wendys.com,http://wendys.com"
60,Wendy's,Fast Food Restaurant,4331 Atlanta Hwy,Loganville,30052,GA,US,33.839726,-83.905798,http://www.wendys.com
61,Wendy's,Fast Food Restaurant,3015 Panola Rd,Lithonia,30038,GA,US,33.699522,-84.17274,http://www.wendys.com
62,Burger King,Fast food restaurants,184 Endicott St,Danvers,1923,MA,US,42.547923,-70.942014,http://www.bk.com
63,Boston Road Pizza,Fast Food Restaurants,1291 Boston Rd,Springfield,1119,MA,US,42.140526,-72.50087,http://bostonroadpizza.com
64,McDonald's,Fast Food Restaurant,6134 State Route 14,Ravenna,44266,OH,US,41.157059,-81.219054,http://mcdonalds.com
65,Boston Market,Fast Food Restaurant,4402 Little Rd,Arlington,76016,TX,US,32.679467,-97.195027,"http://www.bostonmarket.com,http://bostonmarket.com"
66,D'Angelo Grilled Sandwiches,Fast Food Restaurants,15 Highland Ave,Attleboro,2703,MA,US,41.92023235,-71.35787658,"http://www.dangelos.com,http://dangelos.com"
67,Burger King,Fast Food,2992 Jamacha Rd,El Cajon,92019,CA,US,32.739923,-116.942156,"http://www.burgerking.com/,http://www.bk.com"
68,Boston Market,Fast Food Restaurants,706 Fletcher Pkwy,El Cajon,92020,CA,US,32.80827,-116.97137,"http://www.bostonmarket.com,https://bostonmarket.com/location/el-cajon-ca-735/?utm_source=Yextandutm_medium=clickandutm_campaign=listingsandutm_content=735"
69,Burger King,Fast food restaurants,822 N Johnson Ave,El Cajon,92020,CA,US,32.805945,-116.971542,http://www.burgerking.com/
70,Nino's Pizzarama,Fast Food Restaurants,2819 Easton Rd,Willow Grove,19090,PA,US,40.170877,-75.127393,"http://www.ninospizzarama.com,http://ninospizzarama.net"
71,Carl's Jr,Fast Food Restaurant,8924 Sierra Ave,Fontana,92335,CA,US,34.091528,-117.43637,http://www.carlsjr.com
72,Carl's Jr,Fast Food,18025 Ventura Blvd,Encino,91316,CA,US,34.16469,-118.52474,http://www.carlsjr.com/
73,Burger King,Fast food restaurants,242 N El Camino Real,Encinitas,92024,CA,US,33.051949,-117.260994,http://www.burgerking.com/
74,Carl's Jr,Fast Food Restaurant,9002 Firestone Blvd,Downey,90241,CA,US,33.93527552,-118.1238946,http://www.carlsjr.com
75,Carl's Jr,Fast Food Restaurants,9110 Imperial Hwy,Downey,90242,CA,US,33.91684597,-118.1337577,http://www.carlsjr.com
76,Filippi's Pizza Grotto,Fast Food Restaurants,962 Garnet Ave,San Diego,92109,CA,US,32.797188,-117.2525,"http://www.realcheesepizza.com,http://www.realcheesepizza.com/web/locations/pb.html"
77,Burger King,Fast food restaurants,7011 Barker Cypress Rd,Cypress,77433,TX,US,29.88081,-95.683922,http://www.bk.com
78,Boston Market,Fast Food Restaurant,2180 Contra Costa Blvd,Pleasant Hill,94523,CA,US,37.946879,-122.060174,"http://www.bostonmarket.com,https://bostonmarket.com/location/pleasant-hill-ca-1961/?utm_source=Yextandutm_medium=clickandutm_campaign=listingsandutm_content=1961"
79,Jack in the Box,Fast Food,3035 Castro Valley Blvd,Castro Valley,94546,CA,US,37.695437,-122.081735,"http://www.jackinthebox.com,http://www.jackinthebox.com/"
80,Round Table Pizza,Fast Food,4302 Moorpark Ave,San Jose,95129,CA,US,37.315904,-121.977843,"http://www.roundtablepizza.com/,http://roundtablepizza.com"
81,El Pollo Loco,Fast Food Restaurants,1751 S Alameda St,Compton,90220,CA,US,33.894566,-118.220228,http://www.elpolloloco.com
82,Arby's,Fast Food Restaurant,2244 Otay Lakes Rd,Chula Vista,91915,CA,US,32.646857,-116.967527,"http://www.arbys.com,https://locations.arbys.com/us/ca/chula-vista/2244-otay-lakes-rd.html,http://www.arbys.com/"
83,Burger King,Fast food restaurants,962 East Ave,Chico,95926,CA,US,39.76117,-121.842187,"https://locations.bk.com/ca/chico/962-east-ave.html,http://www.bk.com"
84,In-N-Out Burger,Fast Food Restaurants,1170 W Branch St,Arroyo Grande,93420,CA,US,35.1273,-120.598,http://www.in-n-out.com
85,Copper Oven Artisan Pizza,Fast Food Restaurants,73196 Highway 111,Palm Desert,92260,CA,US,33.72118,-116.38791,http://copperovenartisanpizza.com
86,Carl's Jr,Fast Food Restaurant,20900 Roscoe Blvd,Canoga Park,91304,CA,US,34.218957,-118.58903,"http://www.carlsjr.com,http://www.carlsjr.com/"
87,McDonald's,Fast Food Restaurant,1760 41st Ave,Capitola,95010,CA,US,36.975287,-121.963929,"http://mcdonalds.com,http://www.mcdonalds.com/?cid=RF:YXT_FM:TP::Yext:Referral,http://api.citygridmedia.com/content/places/v2/click?q=9YKflVKbY9NauPJdMy0B1gS1IhB4xv4EGQ6wFBP1R9j_yPfgIG2qmnnU3b4EFXLWYqzqH6pileJnsDBgYjhj6412OE3eqoLyrSIPEJpXfr10mUiQbRKfZCKZytUuX1ZpMEsmU-K0mL9uCZDhf-nRxkx0xcmqFX3TZTiNoK_LLFKzM4tXpEgtM6BtXv1F1Dtta5XsdiyvBJEV0mlmPAVL2Pu6RmeqLjpOAn33qz2UnedC1_zx5rpnLNrmgDLP8JD5ybb_0Q39GTiHHETlR-P6De5PcnwdlW-y8vyj8ebfPFpzbn9rFADOxR89FY8oXj4UIhDD_VtoRyzgHJH5V9Y-VMW6tYYPV1Mo1HKgwIeySRaqAGLkVvLdGz_CsMZ1suQUbuVO4npEtgjXhkTN1M6U6OnMStBos6B3SKu2FskRfaKS79IW6dtIJMgMX6YDrO3fsrAwOvRxD3y_9wUQipDE74g-3ujGiLw9Hu1VZzqhXGXny8vDUMMm7W9lxwbR6gY5u0kN8pas5HAodV4YJoO2wlriR6AFoJf1&placement=listing_profile.b&cs_user=unknown&cs_session=563e0edec6600f42076961856207b2e00e43040a"
88,Carl's Jr,Fast Food Restaurant,401 Las Posas Rd,Camarillo,93010,CA,US,34.221478,-119.070243,http://www.carlsjr.com
89,Del Taco,"Fast Food Restaurant, Mexican Restaurant, and Taco Place",2871 Lenwood Rd,Barstow,92311,CA,US,34.867566,-117.114747,http://www.deltaco.com
90,Del Taco,Fast Food Restaurant,12690 Ramona Blvd,Baldwin Park,91706,CA,US,34.077713,-117.996169,"http://www.deltaco.com/,http://www.deltaco.com"
91,Little Caesars Pizza,Fast Food,1210 N Hacienda Blvd,La Puente,91744,CA,US,34.0422696,-117.9493495,"http://www.littlecaesars.com,http://www.littlecaesars.com/"
92,McDonald's,Fast Food Restaurant,562 N Main St,Bishop,93514,CA,US,37.365314,-118.39508,http://mcdonalds.com
93,McDonald's,Fast Food Restaurants,1310 E Lamar St,Americus,31709,GA,US,32.07128,-84.216974,"http://mcdonalds.com,http://www.mcdonalds.com/?cid=RF:YXT_FM:TP::Yext:Referral,http://api.citygridmedia.com/content/places/v2/click?q=9YKflVKbY9NauPJdMy0B1gS1IhB4xv4EWw0zDoT-UWc_izWF3zs5PKGdfOHubWrvM0QwDCYwbOH2fdLi0dK5xArULcksCCbfR-WWAz9xD1AmGVAQZIom4U3n5R4DuRC8WJCtvJcNItEKoCSfzwapuGnmwGnHDpEGYXGjnN4u8zXqkiimSHFf4_dbqGRbVgNJLAJ_vfQBtbvB4zGTnIYoWRbIEgmM7GACT2nb6P4T534O6zsqWMT1dGYn2yZmThdG2l6bxRAehX9MMRYzPPYWyr41EJtdRX7k2W2WlBonHxD4LoeEKDlC6HoS_lxNDt4TdZGM073h_gpe34ufzx1v9MJp9LaquUJq-1ADLw6yAaZQYpZYbTJ6EcC6EfvO9ETkn3vDUWIRGp_dWtsgvTj2j_rMgdtj0BF2b71HuiaZF9wJxPHjZM0xyP5GAMXUbwE9Eil7_kubblHoZV1pgJy9TsaPTE2jphduEIq5AoFtq0Xr5preciKefI9xkeVpjaUUFPnXuPQd2tiRlJ_TWt5Z4N7qfdZS2BAJ&placement=listing_profile&cs_user=unknown&cs_session=387e0e1c0d4afa4d7f617762d1f04373dd312c3d"
94,Burger King,Fast Food Restaurant,2009 E Greenville St,Anderson,29621,SC,US,34.54701,-82.6319,"https://locations.bk.com/sc/anderson/2009-e-greenville-st.html,http://www.bk.com"
95,Carl's Jr,Fast Food Restaurant,2521 W Commonwealth Ave,Alhambra,91803,CA,US,34.088183,-118.151437,"http://www.carlsjr.com,http://www.carlsjr.com/,http://carlsjr.com"
96,Sbarro,Fast Food Restaurants,3450 Wrightsboro Rd Ste 2340,Augusta,30909,GA,US,33.46734,-82.07989,http://www.sbarro.com
97,Casey's General Store,Fast Food,810 Oak Ave,Neoga,62447,IL,US,39.321895,-88.451273,http://www.caseys.com
98,Casey's General Store,Fast Food,701 S Van Buren St,Newton,62448,IL,US,38.983809,-88.161001,http://www.facebook.com/caseysgenstore
99,Chipotle Mexican Grill,Fast Food Restaurants,9175 De Soto Ave,Chatsworth,91311,CA,US,34.23765,-118.58919,"http://www.chipotle.com,http://chipotle.com"
100,McDonald's,Fast Food Restaurants,328 N Main St,Cedartown,30125,GA,US,34.017911,-85.253614,"http://www.mcdonalds.com/?cid=RF:YXT_FM:TP::Yext:Referral,http://api.citygridmedia.com/content/places/v2/click?q=9YKflVKbY9NauPJdMy0B1gS1IhB4xv4EWw0zDoT-UWc_izWF3zs5PKGdfOHubWrvM0QwDCYwbOH2fdLi0dK5xArULcksCCbfR-WWAz9xD1AmGVAQZIom4U3n5R4DuRC8WJCtvJcNItEKoCSfzwapuGnmwGnHDpEGYXGjnN4u8zXqkiimSHFf4_dbqGRbVgNJdTI6hwkTdO70YISz9gWhZfxgpeYkj_-R9vOeA-p1khZDhlZfUGWLzjorWZg3AbwYZrHfJw5wxFp6UvANO_y4sUDxEjtjqYRURVajG48cn8DG8XtxI_quyfbdkLD8UAAE6l2unFkm-j08eNMRITEhxrf-0J0t7QQl_m5QBqQxGUAIJbP4tuCKlQ5UkS_2fbv0TNkOmTRColjTv49Ic8j4qdTS8opNbGJI7wG3MpG-XO2aQiFOAPyWLWvX5xc7tgkkSrWFPPf6568Z0ebn5QPYCxsczgnGFxXTbEtNwrbSzXMr0bAXtLCc7THhEc6fIeLJLRY2-BiFu2XQugiS_Jnt2c17suE6c9DV&placement=listing_profile&cs_user=unknown&cs_session=c67eaf7275f5c760207335f24d46a3bfc849009c"
101,Burger King,Fast food restaurants,3025 Main St,Glastonbury,6033,CT,US,41.726353,-72.617608,"http://www.bk.com,http://bk.com"
102,Boston Market,"American Restaurant, Sandwich Place, and Fast Food Restaurant",2834 Main St,Glastonbury,6033,CT,US,41.720514,-72.614164,"http://www.bostonmarket.com,http://bostonmarket.com"
103,McDonald's,Fast Food Restaurant,605 E Broadway St,Campbellsville,42718,KY,US,37.346447,-85.337368,"http://www.mcdonalds.com/?cid=RF:YXT_FM:TP::Yext:Referral,http://mcdonalds.com,http://api.citygridmedia.com/content/places/v2/click?q=9YKflVKbY9NauPJdMy0B1gS1IhB4xv4EGQ6wFBP1R9j_yPfgIG2qmnnU3b4EFXLWYqzqH6pileJnsDBgYjhj6412OE3eqoLyrSIPEJpXfr10mUiQbRKfZCKZytUuX1ZpMEsmU-K0mL9uCZDhf-nRxkx0xcmqFX3TZTiNoK_LLFKzM4tXpEgtM6BtXv1F1DttlBrudHdoBH_DGjaTmU8PwdbfJ2xHPn7Rwi4U85-2Et587Fq8vmz8iGAm0EjY1KA0R2zhuMhnQKoGqWThgFN8jTErCjxtP6ollGXsWzGWbhCoZclcoPdleGfT21PW-SYTIkUwmGBOAc4gxt97kOU6h8_7VAEhFodMhojUnjcQV0jzIOdXWrA8XHVWc4Ne2mCN0L_k5sP1s5HSZuyYKD74rjqX9DHdfLf_fh_cwv2f3PoRNruakJsx4Q77MvV36wSfVo-ccW5rGjnV-Ji-wuoCGkbaadlEUapm8WquQeqX4seGxwJZ4u_gdLYz906J0I5hqNjQlV0cpIEe-RABopzNSK7YVr3R-iFf&placement=listing_profile.b&cs_user=unknown&cs_session=c32e8929edce4f151a7e8f5f303f328388f837d7"
104,SUBWAY,Fast Food Restaurant,1602 E Broadway St,Campbellsville,42718,KY,US,37.357213,-85.323654,"http://www.subway.com,http://api.citygridmedia.com/content/places/v2/click?q=9YKflVKbY9NauPJdMy0B1gS1IhB4xv4EWw0zDoT-UWc_izWF3zs5PKGdfOHubWrvM0QwDCYwbOH2fdLi0dK5xArULcksCCbfR-WWAz9xD1AmGVAQZIom4U3n5R4DuRC8WJCtvJcNItEKoCSfzwapuGnmwGnHDpEGYXGjnN4u8zXqkiimSHFf4_dbqGRbVgNJrdpPH-jgTbkJVTDQ1eCKgW3VOJJPaEiUYk16SKia0wRbqbTrXrgOsTg6wvGYc7dD1JIugQyrEUjnheYMMfX7Lky5pbVLFPFbmAdGfdN8Nma7PGSKUXuqWgSpzEoUOKRdREuu5IhJf96KRMuWIVvtH4jsN7WtpquET2jm2wBIaUf0DSjXK7JJJbHAjR6-fcD9M9PkPMxSZVgQ8O3zIdkLn-PAVgBDJjHcBzOI8KJ0HKCvsWneLvVENMvDMFMCKHJ54zLmr3V76V2cVgUiaMt1VwJtMegdL5gmMum2a24nxrMq824yTST5BTVAcxhcohCYA9mZJSDrvQ4ZJ163lihC7FFPTsEqh0Lx&placement=listing_profile&cs_user=unknown&cs_session=aed3031b0c80181e40d32382a48b58fd6fc54832"
105,Burger King,Fast food restaurants,1475 Holiday Ln,Fairfield,94534,CA,US,38.259527,-122.062146,http://www.bk.com
106,Fat Patty's,Fast Food Restaurants,1442 Winchester Ave,Ashland,41101,KY,US,38.4791,-82.6411,"http://www.fatpattysonline.com,http://fatpattysonline.com"
107,Dairy Queen,Fast Food Restaurants,12759 Us Route 60,Ashland,41102,KY,US,38.3887,-82.7156,http://www.dairyqueen.com
108,Pizza Hut,Fast Food Restaurants,1439 S US Highway 1,Fort Pierce,34950,FL,US,27.4357,-80.326,http://www.pizzahut.com
109,Arby's,"Fast Food Restaurant, American Restaurant, and Sandwich Place",12915 Cortez Blvd,Brooksville,34613,FL,US,28.534187,-82.516103,"http://www.arbys.com,http://arbys.com"
110,McDonald's,Fast Food Restaurant,11671 Se Federal Hwy,Hobe Sound,33455,FL,US,27.06168,-80.13746,http://mcdonalds.com
111,Culver's,Burger Joint and Fast Food Restaurant Gulf Breeze,8792 Navarre Pkwy,Navarre,32566,FL,US,30.403772,-86.85506,"http://www.culvers.com,http://culvers.com/restaurants/navarre-fl"
112,Burger King,Fast food restaurants,825 E 49th St,Hialeah,33013,FL,US,25.867613,-80.266376,"http://www.bk.com,http://www.burgerking.com/"
113,Pizza Hut,Fast Food,2750 W 68th St Ste 104,Hialeah,33016,FL,US,25.882938,-80.33868,"http://www.pizzahut.com,http://www.pizzahut.com/"
114,Dairy Queen,Fast Food,36172 Hwy 27,Haines City,33844,FL,US,28.125757,-81.64043,"http://www.dairyqueen.com/,http://dairyqueen.com"
115,Pizza Hut,Fast Food Restaurants,52 Tuscan Way Ste 208,Saint Augustine,32092,FL,US,29.96174,-81.49109,http://www.pizzahut.com
116,KFC,Fast Food Restaurant,1232 Providence Blvd,Deltona,32725,FL,US,28.8829,-81.2413,"http://www.kfc.com,http://kfc.com"
117,McDonald's,Fast food restaurants,2370 US Highway 331 S,DeFuniak Springs,32435,FL,US,30.68782,-86.12318,"http://www.mcdonalds.com/?cid=RF:YXT_FM:TP::Yext:Referral,http://api.citygridmedia.com/content/places/v2/click?q=9YKflVKbY9NauPJdMy0B1gS1IhB4xv4EGQ6wFBP1R9j_yPfgIG2qmnnU3b4EFXLWYqzqH6pileJnsDBgYjhj6412OE3eqoLyrSIPEJpXfr10mUiQbRKfZCKZytUuX1ZpMEsmU-K0mL9uCZDhf-nRxkx0xcmqFX3TZTiNoK_LLFKzM4tXpEgtM6BtXv1F1Dtt581JwH6rvi9UN2-AW34ISP0JhtFQGQLnDdvfQfrSO-zvO4AkSGgIkC0OkjRwrc_8XrbSDDlmhDrDxBVDmhrkP7KvU1bGJpElXa8uBndpVCIlriAsonKvp2MumhEshE40Aw0-dsieNYX2S9DzU5m6vregqZfEgTwhYO8AQ8LLx1EfG6Ahb1UU9RfR156SW0jUuA_qjgypXlwHx2tMyK8o-BiTP4Wgo0l6Tt48vg-Bc-EUANa7o7S62LuTc-HKnggjJQ_HFw_NywLHUwWkEeWnvvdqCJ3HbvPaW6Lm0fPy-QDpBzTDGCzP_7rzg1AMEv53BprniE-P2sJYRBjqQp2V2d7dIqyqpN1W&placement=listing_profile.b&cs_user=unknown&cs_session=6f41a129348aa81b8accd61d91669a3ef8d9d655"
118,SONIC Drive-In,Fast Food Restaurant,1508 US Highway 331 S,DeFuniak Springs,32435,FL,US,30.70032,-86.12317,"https://locations.sonicdrivein.com/fl/defuniak-springs/1508-u-s--hwy-331-south.html,http://sonicdrivein.com"
119,Whataburger,Fast Food Restaurants,2434 US Highway 331 S,DeFuniak Springs,32435,FL,US,30.68693,-86.12329,"https://locations.whataburger.com/fl/defuniak-springs/2434-us-highway-331-s.html/,https://locations.whataburger.com/fl/defuniak-springs/2434-us-highway-331-s.html/?utm_source=yextpagesandutm_medium=locallistingsandutm_campaign=yextpages,https://locations.whataburger.com/fl/defuniak-springs/2434-us-highway-331-s.html/?utm_source=yextpages&utm_medium=locallistings&utm_campaign=yextpages"
120,Arby's,"Fast Food Restaurant, Sandwich Place, and American Restaurant",9975 Corkscrew Rd,Estero,33928,FL,US,26.432003,-81.789408,"http://www.arbys.com,http://locations.arbys.com/us/fl/estero/9975-corkscrew-rd.html"
121,Chick-Fil-A,Fast Food Restaurants,519 Brandon Town Center Mall,Brandon,33511,FL,US,27.928097,-82.324836,http://www.chick-fil-a.com/westfieldbrandon
122,Taco Bell,Fast Food Restaurant,865 S Main St,Belle Glade,33430,FL,US,26.67511,-80.67,"http://www.tacobell.com,https://locations.tacobell.com/fl/belle-glade/865-south-main-street.html?utm_source=yextandutm_campaign=yextpowerlistingsandutm_medium=referralandutm_term=028590andutm_content=website,http://tacobell.com"
123,McDonald's,Fast Food Restaurant,339 US Highway 27 S,Avon Park,33825,FL,US,27.596742,-81.494029,"http://www.mcdonalds.com/?cid=RF:YXT_FM:TP::Yext:Referral,http://mcdonalds.com,http://api.citygridmedia.com/content/places/v2/click?q=9YKflVKbY9NauPJdMy0B1gS1IhB4xv4EWw0zDoT-UWc_izWF3zs5PKGdfOHubWrvM0QwDCYwbOH2fdLi0dK5xArULcksCCbfR-WWAz9xD1AmGVAQZIom4U3n5R4DuRC8WJCtvJcNItEKoCSfzwapuGnmwGnHDpEGYXGjnN4u8zXqkiimSHFf4_dbqGRbVgNJH082dWwoivc4p4kYcNctobV9d38jH7Uy-8s-6g-hHOcn8pK-EbMNfkijcS63cHK1O1bbz83Ue83JCdx1TixCNR2LYzXfU6L0dSkSxuTZ3Lq5VfyeGRg0LrcjQMAFb3FVHVJ3WARRKOLBF7fUDiThK0yXv7cfKps9_A3VjX2XeiZELE2ptulcV9a58R5y9pFUfjHddluI_Y0AyG54NxPxX8SoWeyfZo2zpaC4ZoeD_Gs_0bjOOvh8ON-OuH0Pb9waSdvDRDNlNkfm9H20Z-pkWtDOwMPZttSHkmuBqw1ndIs-jBEKdc0gWNjURXlxLMGkIbBYlj7CwRLnxCeKWvanRynguEUbZ9LH&placement=listing_profile&cs_user=unknown&cs_session=47264dd99389ccea3fa66609402cc35cc57f4737"
124,Pizza Hut,Fast Food Restaurants,1498 US Highway 17 N,Wauchula,33873,FL,US,27.56904,-81.81521,"http://www.pizzahut.com,http://api.citygridmedia.com/content/places/v2/click?q=9YKflVKbY9NauPJdMy0B1gS1IhB4xv4EWw0zDoT-UWc_izWF3zs5PKGdfOHubWrvM0QwDCYwbOH2fdLi0dK5xArULcksCCbfR-WWAz9xD1AmGVAQZIom4U3n5R4DuRC8WJCtvJcNItEKoCSfzwapuGnmwGnHDpEGYXGjnN4u8zXqkiimSHFf4_dbqGRbVgNJLpjy3VUlKNh5fCAtnz4V-8bhJKzZuaQD1ca6FJqGo-lzldJqcinKEpHAkWuqda0Ne8oNZbA85xASB2d6apqWts_PSHBIUmoG3-nr-8gGvFTxeygH1B8SMrNrsTqHo2CKSQJJl0Uxo9GLc4TQG-5tee4TO3FDukULdmWBiK7upIMB0h-7jYYSApyO_DOgSBUM44jczEXGuTn_YLE1zzic4v6MEWcB05IjmINYQVe9QG2zert5bHNmfq3l3W27n8JaQ-lIJJ7UrUjNTTeVg_QY8z4zPoT-krZ0CiJ6MYqd-V2Wy-KoyGQrJ-iTBNPhuz8hnx0zO5qusUZCucT6WoakpFzgEQkvqo9X&placement=listing_profile&cs_user=unknown&cs_session=c3d172019472fa4e5bdc9385b94c631ca2bc0c45"
125,Firehouse Subs,Fast Food,1608 W Orange Blossom Trl,Apopka,32712,FL,US,28.68587218,-81.53919026,"https://www.firehousesubs.com/locations/fl/apopka-commons,http://www.firehousesubs.com"
126,Burger King,Fast Food Restaurant,460 Airways Ave,Savannah,31408,GA,US,32.135603,-81.208243,"http://bk.com,https://locations.bk.com/ga/savannah/460-airways-ave.html,http://www.bk.com"
127,SONIC Drive-In,Fast Food Restaurant,1510 N Summit St,Arkansas City,67005,KS,US,37.08012,-97.03938,"https://locations.sonicdrivein.com/ks/arkansas-city/1510-north-summit-street.html,http://sonicdrivein.com"
128,McDonald's,Fast Food Restaurants,2613 Central Ave,Dodge City,67801,KS,US,37.77885,-100.01663,http://www.mcdonalds.com/?cid=RF:YXT_FM:TP::Yext:Referral
129,Burger King,Fast Food Restaurants,2501 Se Delaware Ave,Ankeny,50021,IA,US,41.704627,-93.580975,"http://www.bk.com,https://locations.bk.com/ia/ankeny/2501-s-e-delaware.html"
130,Cupie's Drive-In,Fast Food Restaurants,134 W Kamehameha Ave,Kahului,96732,HI,US,20.8874,-156.4698,http://www.cupiesdrivein.com
131,Chick-Fil-A,"Fast Food Restaurant, American Restaurant, and Sandwich Place",230 S Duff Ave,Ames,50010,IA,US,42.02045,-93.60967,"http://www.chick-fil-a.com/ames,http://www.chick-fil-a.com,http://chick-fil-a.com/ames"
132,Burger King,Fast Food Restaurants,2817 E 13th St,Ames,50010,IA,US,42.03511,-93.57344,"https://locations.bk.com/ia/ames/2817-east-13th-st.html,http://www.bk.com"
133,Burger King,Fast Food Restaurant,1020 E 1st St,Ankeny,50021,IA,US,41.732374,-93.582329,"http://www.bk.com,https://locations.bk.com/ia/ankeny/1020-east-1st-st.html"
134,Pizza Hut,Fast Food Restaurants,2450 S Vista Ave,Boise,83705,ID,US,43.580339,-116.213106,http://www.pizzahut.com
135,Burger King,Fast food restaurants,1807 N Church St,Burlington,27217,NC,US,36.09503,-79.408,"http://www.bk.com,https://locations.bk.com/nc/burlington/1807-north-church-st.html,http://bk.com"
136,Dairy Queen,Fast Food Restaurants,2535 18th St,Bettendorf,52722,IA,US,41.548648,-90.504798,http://www.dairyqueen.com
137,McDonald's,Fast Food Restaurant,9320 Steele Creek Rd,Charlotte,28273,NC,US,35.16361,-80.96889,"http://www.mcdonalds.com/?cid=RF:YXT_FM:TP::Yext:Referral,http://mcdonalds.com"
138,Burger King,Fast Food Restaurant,9640 Mariposa Rd,Hesperia,92344,CA,US,34.425812,-117.378018,http://www.bk.com
139,Burger King,Fast food restaurants,17021 Main St,Hesperia,92345,CA,US,34.419638,-117.291579,http://www.bk.com
140,Del Taco,Fast Food Restaurant,14485 Inglewood Ave,Hawthorne,90250,CA,US,33.899881,-118.361657,http://deltaco.com
141,Del Taco,Fast Food Restaurant,18070 Chatsworth St,Granada Hills,91344,CA,US,34.264517,-118.526782,"http://www.deltaco.net,http://deltaco.net"
142,Arby's,Fast Food Restaurant,1200 Forrest Ave,Dover,19904,DE,US,39.158375,-75.550267,"http://www.arbys.com,https://locations.arbys.com/us/de/dover/1200-forrest-ave.html,http://locations.arbys.com/us/de/dover/1200-forrest-ave.html"
143,McDonald's,Fast Food Restaurants,300 Mccarter Rd,Fountain Inn,29644,SC,US,34.68534,-82.19727,http://www.mcdonalds.com/?cid=RF:YXT_FM:TP::Yext:Referral
144,Burger King,Fast Food Restaurant,2040 Cumberland St,Lebanon,17042,PA,US,40.33873,-76.447826,http://www.bk.com
145,Chipotle Mexican Grill,Fast Food Restaurants,1451 Quentin Rd,Lebanon,17042,PA,US,40.31787,-76.42396,http://www.chipotle.com
146,Taco Bell,Fast Food Restaurants,609 Naamans Rd,Claymont,19703,DE,US,39.81718,-75.45715,"http://www.tacobell.com,http://api.citygridmedia.com/content/places/v2/click?q=9YKflVKbY9NauPJdMy0B1gS1IhB4xv4EWw0zDoT-UWc_izWF3zs5PKGdfOHubWrvM0QwDCYwbOH2fdLi0dK5xArULcksCCbfR-WWAz9xD1AmGVAQZIom4U3n5R4DuRC8WJCtvJcNItEKoCSfzwapuGnmwGnHDpEGYXGjnN4u8zXqkiimSHFf4_dbqGRbVgNJUxvsjhaVB8tO-ijV5xKzSNT2xPl9DpdifkldMDaXXJInNCnTmMm4DEMgB74WCvnbdnCLqBS7bX7TgcJVkoo1WDwnkjfL5SZ8xRwRuKpCds7ih7J30382cpcsFHtJz6Sf22hTahqtIaKiUAHKVhjLYDDKC8NxWU8lHT_B40cbocWhMtKntjzi4NDfZ68wlG7w1LkZ5HDYJUL-a8tWFONzVeyw0HLTM8qO7AZEeX1oUwkvplDCjKHzcsdO_9fOF9QfoF0eVlQWLNvqlARozoBMJi9sErLkYridFhtbt-yF8D8mbLqUuDX9ms_qPe7wcRrvFdL-4Ve5l9jQQD57sKqgBBod25gs-apb&placement=listing_profile&cs_user=unknown&cs_session=c3bcb29f3bbdf5189827891ce394a3f8cc449a96"
147,Pizza Hut,Fast Food,5800 W Chandler Blvd,Chandler,85226,AZ,US,33.30628,-111.94409,http://www.pizzahut.com/
148,McDonald's,Fast Food Restaurants,1205 Commons Cir,Plover,54467,WI,US,44.49541,-89.51668,"http://mcdonalds.com,http://www.mcdonalds.com/?cid=RF:YXT_FM:TP::Yext:Referral"
149,Arby's,"Restaurant, Fast Food Restaurant, and Sandwich Place",1099 S Blackhawk St,Aurora,80012,CO,US,39.697205,-104.824323,"http://www.arbys.com,http://www.arbys.com/,http://locations.arbys.com/us/co/aurora/1099-s-blackhawk-st.html,http://arbys.com"
150,Primo's Pizza,Fast Food Restaurants,406 N Pershing St,Energy,62933,IL,US,37.77743,-89.02603,http://primospizzaherrin.com
151,Simple Simon's Pizza,Fast Food Restaurants,201 Lee Town Rd,Pea Ridge,72751,AR,US,36.44176,-94.114426,http://www.simplesimonspizza.com
152,Arby's,Fast Food Restaurants,3067 Wilma Rudolph Blvd,Clarksville,37040,TN,US,36.594351,-87.287425,"https://locations.arbys.com/us/tn/clarksville/3067-wilma-rudolph-blvd.html,http://www.arbys.com,http://locations.arbys.com/us/tn/clarksville/3067-wilma-rudolph-blvd.html,http://www.locations.arbys.com/us/tn/clarksville/3067-wilma-rudolph-blvd.html"
153,Dairy Queen,Fast Food Restaurants,1635 W State St,Alliance,44601,OH,US,40.90199,-81.12966,http://www.dairyqueen.com
154,CASA Mexicana,Fast Food Restaurants,5311 Highway 5 N Ste 240,Bryant,72022,AR,US,34.623,-92.50348,http://www.casamexicana.com
155,Burger King,Fast Food Restaurant,3001 N Reynolds Rd,Bryant,72022,AR,US,34.623419,-92.499052,"https://locations.bk.com/ar/bryant/3001-reynolds-rd.html,http://www.bk.com"
156,Burger King,Fast Food Restaurants,2275 E Butler Ave,Flagstaff,86004,AZ,US,35.192109,-111.624197,"https://locations.bk.com/az/flagstaff/2275-east-butler-ave.html,http://bk.com"
157,Arby's,Fast Food Restaurants,1818 6th St,Brookings,57006,SD,US,44.31095,-96.77414,"https://locations.arbys.com/us/sd/brookings/1818-6th-street.html,http://arbys.com"
158,KFC,Fast Food,3051 W Apache Trl,Apache Junction,85120,AZ,US,33.41508,-111.57884,"http://www.kfc.com,http://www.kfc.com/"
159,Burger King,Fast Food Restaurants,Route 52 Airport Square,Bluefield,24701,WV,US,37.28415,-81.25128,https://locations.bk.com/wv/bluefield/route-52-airport-square.html
160,Bob Evans,Fast Food Restaurants,102 Harper Park Dr,Beckley,25801,WV,US,37.793559,-81.217557,https://www.bobevans.com/our-restaurants/locations/258
161,Pizza Hut,Fast Food Restaurants,1912 Harper Rd,Beckley,25801,WV,US,37.790326,-81.210547,"http://www.pizzahut.com,http://api.citygridmedia.com/content/places/v2/click?q=9YKflVKbY9NauPJdMy0B1gS1IhB4xv4EWw0zDoT-UWc_izWF3zs5PKGdfOHubWrvM0QwDCYwbOH2fdLi0dK5xArULcksCCbfR-WWAz9xD1AmGVAQZIom4U3n5R4DuRC8WJCtvJcNItEKoCSfzwapuGnmwGnHDpEGYXGjnN4u8zXqkiimSHFf4_dbqGRbVgNJBJDi5qjwdnosN08aY8yvxL8WpfyGBreknV9axxCltsakePvOfTcTL-8yrrn_zER6bp4pNbjpxBw3A4mzMvmw4qwqAhZ_OMjZ9GUR9vdBUYOZ_q0hPHTf-VbV7j853G04wURZF0WlCWUxWhWwUgppXyYmYG9nmmdpXMQzjJUFUyf0ZY9Uuc4Oqs5kFpwAkUJjEgh9L1JRBcs_gqpc3cnhTbn7cpmMOyoldisza-Xbtyd8_cHLJcibFOnfvJVmcID1h7dmKWX1IteV5-qSYFZAhmMZBxdFViuXuqRQjed2MJZgypcdgCmZVjP4EMC1JOjh8PdlWo9Clkl8l5xaopj0Gv6LX7z0N_Y0&placement=listing_profile&cs_user=unknown&cs_session=bf4e5bd13484c9f0a20d233e9f98a86810f92dd0"
162,Players Grill,Fast Food Restaurants,1855 Deerfield Rd,Highland Park,60035,IL,US,42.17114472,-87.82489848,http://playersgrill.net
163,Burger King,Fast Food Restaurants,3 Clarksburg Rd,Buckhannon,26201,WV,US,38.997749,-80.233242,http://www.bk.com
164,Arby's,Fast Food,302 Yellowstone Ave,Cody,82414,WY,US,44.51606,-109.08971,"https://locations.arbys.com/us/wy/cody/302-yellowstone-avenue.html,http://locations.arbys.com/us/wy/cody/302-yellowstone-avenue.html"
165,Burger King,Fast Food Restaurant,1902 Mountain View Dr,Cody,82414,WY,US,44.51459,-109.05084,"https://locations.bk.com/wy/cody/1902-mountain-view-dr.html,http://www.bk.com,http://bk.com"
166,Pizza Hut,Fast Food Restaurants,5320 Yellowstone Rd,Cheyenne,82009,WY,US,41.16767,-104.828636,http://www.pizzahut.com
167,Back Yard Burgers,Fast Food Restaurants,1100 Poplar View Ln N,Collierville,38017,TN,US,35.0492,-89.69907,http://www.backyardburgers.com
168,Arby's,Fast Food Restaurants,967 W Poplar Ave,Collierville,38017,TN,US,35.04561,-89.6942,https://locations.arbys.com/us/tn/collierville/967-w-poplar-avenue.html
169,Arby's,Fast Food Restaurants,2607 Cy Ave,Casper,82604,WY,US,42.82804,-106.354802,"https://locations.arbys.com/us/wy/casper/2607-cy-ave.html,http://locations.arbys.com/us/wy/casper/2607-cy-ave.html"
170,Arby's,Fast Food Restaurants,1860 N Germantown Pkwy,Cordova,38016,TN,US,35.175914,-89.792333,"http://www.arbys.com,https://locations.arbys.com/us/tn/cordova/1860-n-germantown-pkwy.html"
171,SUBWAY,Fast Food Restaurants,310 W Grand Xing,Mobridge,57601,SD,US,45.53751,-100.43688,http://www.subway.com
172,Arby's,Fast Food,1502 N Clinton St,Defiance,43512,OH,US,41.303027,-84.361279,"http://www.arbys.com,https://locations.arbys.com/us/oh/defiance/1502-n-clinton-st.html,http://locations.arbys.com/us/oh/defiance/1502-n-clinton-st.html"
173,Pizza Hut,Fast Food Restaurants,1133 N Clinton St,Defiance,43512,OH,US,41.301426,-84.360818,"http://www.pizzahut.com,http://api.citygridmedia.com/content/places/v2/click?q=9YKflVKbY9NauPJdMy0B1gS1IhB4xv4ESe32aGoZZfGxPUKOAupg6AXFQsvl2-A1Ztd21x5FLKumNpUzGNTBeMk2RvPjC41ZIvgiFwjULRMf936HQ-3fDilu-Jgq-3DroFPqeb7LaXUO4XtGt4yXSJsg9W4tlLVRNocJRkydaRxa9wTgFisP8W1xHayi-pt4xFwjWo1y_3oMTt0W70UlUEOGBuWa4PRxCOstgvLEY2XuknTAmYa2Lqw1Pj-2PaO7Gtv-eM5inYNeJUsSXNSbMp7W5BfKzU5f7xFNV3ADNI37Ymflxg2lpp8eGYv86SJdVHCVHoOqAS59qXHc7xVm3VEg7SX0JdAkDm7luT-FaDmPjsRV24CPePpVsLXJE8JM1HMDPqHGV_9frrF03P39_j1ZtrD6XNadA7J03ZLCtztG86JTVmJzc5Wr4LUvdp6fBuYGkCDm6mxdW2xL9PEalh-pgRqrafrz6b2-xOlamqv4h59ATo8RnclmAEQYDXb2wbVlADLjHkKTSktdP3VPJLCvV4V_Zbic&placement=listing_profile.c&cs_user=unknown&cs_session=54f7491d37efd85e1a57dc211030697f60eaca32"
174,Pizza Hut,Fast Food Restaurants,11 W Dayton Yellow Springs Rd,Fairborn,45324,OH,US,39.783394,-84.006478,http://www.pizzahut.com
175,Arby's,Fast Food,1205 6th Ave Se,Aberdeen,57401,SD,US,45.459587,-98.469823,http://www.arbys.com
176,McDonald's,Fast Food Restaurant,2260 Highway 394,Blountville,37617,TN,US,36.524041,-82.312707,"http://mcdonalds.com,http://www.mcdonalds.com/?cid=RF:YXT_FM:TP::Yext:Referral,http://www.mcdonalds.com"
177,McDonald's,Fast food restaurants,214 Carolina Pottery Dr,Blountville,37617,TN,US,36.534114,-82.390053,"http://www.mcdonalds.com/?cid=RF:YXT_FM:TP::Yext:Referral,http://api.citygridmedia.com/content/places/v2/click?q=9YKflVKbY9NauPJdMy0B1gS1IhB4xv4EWw0zDoT-UWc_izWF3zs5PKGdfOHubWrvM0QwDCYwbOH2fdLi0dK5xArULcksCCbfR-WWAz9xD1AmGVAQZIom4U3n5R4DuRC8WJCtvJcNItEKoCSfzwapuGnmwGnHDpEGYXGjnN4u8zXqkiimSHFf4_dbqGRbVgNJOkkIF-WOaIByBvvSanpjNtoD1H7-nrk79mMKzaqFRqAE-DIi6VaTN0hdyfOT3mJY3A2AvrkepBEsaGS6xFqotz-5ju59PuhBJ-KNvO0-MRh9MhFGwjBZY-Ql4Vp6yatt2bucTi0VNOaHDA704HzPeSYAqmWD9WmdBLZ3WRNUZvhefHKQntNPAJn-C27U5syYtXru4M4qnRQU2B-ou5O2-lzXCVgk-OuhU3TzzkL7oagDSyfYRNRkunZ-ZhGImn0orLOl7P1PuNLwz36g7293F_YuD8kqmtJHsElzwsPXFHI8Yhy7t_MBnpqOeEEH5VRLwVxbCfcFCq7T0s1NLZ8YtxlJzLAnLvVM&placement=listing_profile&cs_user=unknown&cs_session=d8e31e220d6138c99f777419736373552fa20120"
178,Arby's,Fast Food Restaurant,1313 Highway 394,Blountville,37617,TN,US,36.541865,-82.33235,"http://www.arbys.com,https://locations.arbys.com/us/tn/blountville/1313-highway-394.html,http://locations.arbys.com/us/tn/blountville/1313-highway-394.html"
179,Burger King,Fast Food Restaurants,100 Prince Royal Dr,Berea,40403,KY,US,37.568606,-84.311046,http://www.bk.com
180,Italo's Pizza,Fast Food Restaurants,16311 State Route 267,East Liverpool,43920,OH,US,40.66428,-80.62041,http://www.italospizza.com
181,Dairy Queen,Ice Cream Shop and Fast Food Restaurant,900 W 8th St,East Liverpool,43920,OH,US,40.62539,-80.59109,"http://www.dairyqueen.com,http://dairyqueen.com"
182,Hunan Gardens,Fast Food Restaurants,723 Saratoga Ave,Lima,45804,OH,US,40.73101,-84.07296,http://www.limahunangardens.com/location.html
183,Burger King,Fast Food Restaurant,23777 Us Route 23,Circleville,43113,OH,US,39.58426871,-82.95390414,"http://bk.com,http://www.bk.com"
184,Burger King,Fast food restaurants,414 Water St,Chardon,44024,OH,US,41.580901,-81.210168,"https://locations.bk.com/oh/chardon/414-water-st.html,http://www.bk.com"
185,Burger King,Fast Food Restaurant,2005 S Main St,Bellefontaine,43311,OH,US,40.331939,-83.761451,"http://www.bk.com,https://locations.bk.com/oh/bellefontaine/2005-s-main-st.html"
186,Burger King,Fast Food Restaurants,2000 E Edgerton Rd,Broadview Heights,44147,OH,US,41.29553,-81.67674,https://locations.bk.com/oh/broadview-heights/2000-edgerton-rd.html
187,Burger King,Fast Food Restaurant,10037 Broadview Rd,Broadview Heights,44147,OH,US,41.293022,-81.68467,http://www.bk.com
188,Toppers Pizza,Fast Food Restaurants,475 Chippewa Mall Dr,Chippewa Falls,54729,WI,US,44.92456,-91.38189,http://www.toppers.com
189,Hernandez Mexican Restaurant,Fast Food Restaurants,212 S 7th St,Delavan,53115,WI,US,42.63089,-88.63918,http://www.hernandez-restaurant.com
190,Culver's,Fast Food Restaurant,1931 E Geneva St,Delavan,53115,WI,US,42.627712,-88.621712,"http://www.culvers.com/restaurants/Zion,http://www.culvers.com/restaurants/delavan"
191,Burger King,Fast food restaurants,2680 Market St,Christiansburg,24073,VA,US,37.16537,-80.422283,"http://www.bk.com,https://locations.bk.com/va/christiansburg/2680-market-st.html"
192,Arby's,Fast Food Restaurant,2650 Market St,Christiansburg,24073,VA,US,37.166086,-80.422225,"https://locations.arbys.com/us/va/christiansburg/2650-market-st.html,http://www.arbys.com,http://locations.arbys.com/us/va/christiansburg/2650-market-st.html"
193,Burger King,Fast food restaurants,1004 S Main St,Farmville,23901,VA,US,37.289041,-78.397491,"http://www.bk.com,https://locations.bk.com/va/farmville/1004-south-main-st.html,https://www.bk.com"
194,Glorious Foods Gourmet to go & Catering,Fast Food Restaurants,1709 Allied Ln,Charlottesville,22903,VA,US,38.04129,-78.47775,http://www.gloriousfoodscatering.com
195,Little Caesars Pizza,Fast Food Restaurants,1835 Ne Division St,Gresham,97030,OR,US,45.50516,-122.41273,http://www.littlecaesars.com
196,Arby's,Fast Food Restaurants,9575 Dyer St,El Paso,79924,TX,US,31.88498,-106.418612,"http://www.arbys.com,https://locations.arbys.com/us/tx/el-paso/9575-dyer-st.html,http://locations.arbys.com/us/tx/el-paso/9575-dyer-st.html,http://arbys.com"
197,Pizza Hut,Fast Food Restaurants,2202 N Richmond Rd,Wharton,77488,TX,US,29.33102,-96.09457,http://www.pizzahut.com
198,Burger King,Fast Food Restaurants,3120 W Fm 120,Denison,75020,TX,US,33.762134,-96.581587,"https://locations.bk.com/tx/denison/3120-f-m-120.html,https://www.bk.com"
199,McDonald's,Fast Food Restaurants,1705 Expressway 83,Penitas,78576,TX,US,26.243395,-98.4423,http://www.mcdonalds.com
200,Burger King,Fast Food Restaurant,2280 E Garrison St,Eagle Pass,78852,TX,US,28.70574,-100.48395,"https://locations.bk.com/tx/eagle-pass/2280-garrison-st.html,http://www.bk.com"
201,Chick-Fil-A,Fast Food Restaurants,2207 Veterans Blvd,Del Rio,78840,TX,US,29.38843,-100.90521,"http://www.chick-fil-a.com,http://chick-fil-a.com/delrio"
202,Burger King,Fast Food Restaurant,2208 Highway 21 E,Bryan,77803,TX,US,30.69488984,-96.36236943,http://www.bk.com
203,Schlotzsky's,Fast Food Restaurants,1216 W Henderson St,Cleburne,76033,TX,US,32.342149,-97.402765,http://www.schlotzskys.com
204,Arby's,"Restaurant, Fast Food Restaurant, and Sandwich Place",801 Ne Alsbury Blvd,Burleson,76028,TX,US,32.563248,-97.322393,"http://www.arbys.com,https://locations.arbys.com/us/tx/burleson/801-ne-alsbury-blvd.html,http://arbys.com"
205,Chick-Fil-A,Fast Food Restaurant,1105 N Burleson Blvd,Burleson,76028,TX,US,32.566362,-97.319315,"http://www.chick-fil-a.com/burleson,http://www.chick-fil-a.com"
206,Burger King,Fast Food Restaurant and Burger Joint,5301 Bellaire Blvd,Bellaire,77401,TX,US,29.70529415,-95.4730184,http://www.bk.com
207,Arby's,Fast Food Restaurant,3824 S Clack St,Abilene,79606,TX,US,32.405234,-99.764985,"http://www.arbys.com,https://locations.arbys.com/us/tx/abilene/3824-s-clack-st.html,http://locations.arbys.com/us/tx/abilene/3824-s-clack-st.html,http://arbys.com"
208,Golden Chick,American Restaurant and Fast Food Restaurant,2305 N Saint Marys St,Beeville,78102,TX,US,28.421414,-97.756843,"http://locations.goldenchick.com/tx/beeville/1001,http://goldenchick.com"
209,Dairy Queen,Fast Food Restaurants,90571 Main St,Pettus,78146,TX,US,28.847141,-97.44154,http://www.dairyqueen.com
210,Pizza Hut,Fast Food Restaurants,210 W Sinton St,Sinton,78387,TX,US,28.03704,-97.51219,http://www.pizzahut.com
211,Chicken Express,Fast Food Restaurants,96 Cannan Dr,Angleton,77515,TX,US,29.18105,-95.44666,http://www.chickene.com
212,McDonald's,Fast Food Restaurant and Playground,1890 Bethlehem Pike,Flourtown,19031,PA,US,40.111177,-75.214144,"http://mcdonalds.com,http://www.mcdonalds.com/?cid=RF:YXT_FM:TP::Yext:Referral"
213,Arby's,Fast Food,707 Washington Ave,Chestertown,21620,MD,US,39.224652,-76.06993,"http://www.arbys.com,http://locations.arbys.com/us/md/chestertown/707-washington-ave.html"
214,Big House Burgers,Fast food restaurants,1201 E Main St,Alice,78332,TX,US,27.75366,-98.06131,"http://www.mybighouseonline.com,http://mybighouseonline.com"
215,Arby's,Fast Food,8586 S Orange Blossom Trl,Orlando,32809,FL,US,28.44004,-81.4037,"http://www.arbys.com/,http://locations.arbys.com/us/fl/orlando/8586-s-orange-blossom-trail.html"
216,McDonald's,Fast food restaurants,6385 Dobbin Rd,Columbia,21045,MD,US,39.196116,-76.82101,"http://mcdonalds.com,http://www.mcdonalds.com/?cid=RF:YXT_FM:TP::Yext:Referral"
217,Burger King,Fast Food Restaurant,6241 Washington Blvd,Elkridge,21075,MD,US,39.208926,-76.724769,http://www.bk.com
218,Arby's,Fast Food,505 S Oxford Valley Rd,Fairless Hills,19030,PA,US,40.169035,-74.849233,"http://locations.arbys.com/us/pa/fairless-hills/505-s--oxford-valley-rd.html,http://www.arbys.com"
219,Arby's,Fast Food Restaurants,888 E Main St,Ephrata,17522,PA,US,40.164651,-76.154297,"http://www.arbys.com,http://locations.arbys.com/us/pa/ephrata/888-e-main-st.html"
220,Pizza Hut,Fast Food Restaurants,1247 Theatre Dr,Ottumwa,52501,IA,US,41.01903,-92.43745,http://www.pizzahut.com
221,Arby's,Fast Food,470 Cummings St,Abingdon,24210,VA,US,36.705143,-81.974501,"http://www.arbys.com,https://locations.arbys.com/us/va/abingdon/470-cummings-st.html,http://arbys.com"
222,Jerry's Subs & Pizza,"Sandwich Place, Pizza Place, and Fast Food Restaurant",6308 Richmond Hwy,Alexandria,22306,VA,US,38.78022,-77.07939,http://jerrysusa.com
223,Fox's Pizza Den,Fast Food Restaurants,1104 W High St,Ebensburg,15931,PA,US,40.48025,-78.73658,http://www.foxspizzaden.com
224,Burger King,Fast Food Restaurants,285 Jamesway Rd,Ebensburg,15931,PA,US,40.47425,-78.74575,"https://locations.bk.com/pa/ebensburg/285-jamesway-rd.html,http://www.bk.com"
225,Arby's,Fast Food Restaurant,4105 Peach St,Erie,16509,PA,US,42.092031,-80.084087,"http://www.arbys.com,http://arbys.com"
226,Arby's,"American Restaurant, Fast Food Restaurant, and Sandwich Place",3720 Pine Ave,Erie,16504,PA,US,42.108355,-80.050799,"http://www.arbys.com,https://locations.arbys.com/us/pa/erie/3720-pine-ave.html,http://locations.arbys.com/us/pa/erie/3720-pine-ave.html,http://arbys.com"
227,Burger King,Fast Food Restaurant,4868 Houston Rd,Florence,41042,KY,US,39.019712,-84.628729,http://www.bk.com
228,Burger King,Fast Food Restaurant and Burger Joint,105 S 3rd St,Coopersburg,18036,PA,US,40.509286,-75.385827,http://www.bk.com
229,Pizza Pub,Fast Food Restaurants,1306 E Main St,Clarion,16214,PA,US,41.20821,-79.36712,"http://pizzapubclarion.com,http://www.pizzapubclarion.com,http://api.citygridmedia.com/content/places/v2/click?q=9YKflVKbY9NauPJdMy0B1gS1IhB4xv4EWw0zDoT-UWc_izWF3zs5PKGdfOHubWrvM0QwDCYwbOH2fdLi0dK5xArULcksCCbfR-WWAz9xD1AmGVAQZIom4U3n5R4DuRC8WJCtvJcNItEKoCSfzwapuGnmwGnHDpEGYXGjnN4u8zXqkiimSHFf4_dbqGRbVgNJEMsnd44e3L5Yp1WI1SdzNaDUSC-6EeXnMEaudnT8dJ5rK9vGubrNFl_iSMSj8TXUxDWpo50roOJ0_80_o8u4mfAKrUpOfjIglmNTztt6zXfyD4I0XdyJAuXoFrySnWsTjvLNj4ZBx-E-qbd2rly-8t1kGMDbxC2B-CHVY7Quh9iuPI_oBhCArZ4XjUGlBlkl8DQDpfPY9a0rFxRAtLVCaVV1uVw5IWTmgkQJUtqf_Y4zSrpuIKBUp2qmPmcX7_BZUx5SaBv8lo7Eo7KCkUj2HRZFdlVHiLdUm_p1_ZP-_oThFF1ssZB4zdq1iLY9QkYpd2uQ4NeQVUVNvSyBuE0yF91j3r1Q-N2HXHiMMqohi8A&placement=listing_profile&cs_user=unknown&cs_session=31a605fb8e46e65a844cc87656bcae1e0d8edea7"
230,Grande Italian Restaurant,Fast Food Restaurants,4205 Washington Rd,Canonsburg,15317,PA,US,40.26269,-80.13373,"http://grandeitalianrestaurant.com,http://www.grandeitalianrestaurant.com"
231,Pizza Hut,Fast Food Restaurants,453 Valley Brook Rd Ste 200,Canonsburg,15317,PA,US,40.28079,-80.08363,http://www.pizzahut.com
232,Burger King,Fast Food Restaurants,1208 W Front St,Berwick,18603,PA,US,41.049741,-76.252443,"https://locations.bk.com/pa/berwick/1208-w-front-st.html,http://www.bk.com"
233,Pizza Hut,Fast Food Restaurants,4960 Library Rd,Bethel Park,15102,PA,US,40.34341,-80.02729,http://www.pizzahut.com
234,Burger King,Fast Food Restaurant,9 Hudson Hollow Rd,Frankfort,40601,KY,US,38.178962,-84.894596,"https://locations.bk.com/ky/frankfort/9-hudson-hollow-rd.html,http://www.bk.com"
235,Pizza Hut,Fast Food,1110 N 90th St,Seattle,98103,WA,US,47.69445,-122.34243,http://www.pizzahut.com/
236,Arni's Crawfordsville,Fast Food,114 W Wabash Ave,Crawfordsville,47933,IN,US,40.0396,-86.9026,http://meetyouatarnis.com
237,Arby's,"Fast Food Restaurant, American Restaurant, and Sandwich Place",1518 S Washington St,Crawfordsville,47933,IN,US,40.021575,-86.903344,"https://locations.arbys.com/us/in/crawfordsville/1518-s-washington-st.html,http://www.arbys.com,http://locations.arbys.com/us/in/crawfordsville/1518-s-washington-st.html"
238,Pizza Hut,Fast Food Restaurants,3921 S 76th St,Milwaukee,53220,WI,US,42.97331,-88.00821,http://www.pizzahut.com
239,Arctic Circle,Fast Food Restaurants,1075 N Fairfield Rd,Layton,84041,UT,US,41.07553,-111.95069,"http://acburger.com,http://www.acburger.com"
240,Pizza Hut,Fast Food Restaurants,1607 Elkhart Rd,Goshen,46526,IN,US,41.591667,-85.855147,"http://www.pizzahut.com,https://order.pizzahut.com/home"
241,Arby's,Fast Food Restaurants,909 Hyatt St,Gaffney,29341,SC,US,35.077732,-81.703527,"https://locations.arbys.com/us/sc/gaffney/909-hyatt-st.html,http://locations.arbys.com/us/sc/gaffney/909-hyatt-st.html,http://arbys.com"
242,Burger King,Fast Food Restaurants,2460 Mountain City Hwy,Elko,89801,NV,US,40.83757,-115.78954,https://locations.bk.com/nv/elko/2460-mountain-highway.html
243,Pizza Barn,Fast Food Restaurants,2598 Idaho St,Elko,89801,NV,US,40.85103,-115.74498,"http://www.PizzaBarn-Elko.com,http://www.pizzabarn-elko.com"
244,McDonald's,Fast food restaurants,313 Middle Country Rd,Coram,11727,NY,US,40.869655,-72.999817,"http://mcdonalds.com,http://www.mcdonalds.com/?cid=RF:YXT_FM:TP::Yext:Referral"
245,Jerry's Subs & Pizza,Fast Food Restaurants,9711 Fort Meade Rd,Laurel,20707,MD,US,39.095464,-76.837806,http://www.jerrysusa.com
246,Burger King,Fast Food Restaurant,778 Brookway Blvd,Brookhaven,39601,MS,US,31.579563,-90.459029,http://www.bk.com
247,Rico's Pizza & Subs,Fast Food Restaurants,92 W Market St,Corning,14830,NY,US,42.1439,-77.0583,http://www.ricospizza.com
248,B's Pizza,Fast Food Restaurants,2 Wicks Blvd,Corning,14830,NY,US,42.13151,-77.03608,http://www.bspizzacorning.com
249,Burger King,Fast food restaurants,1104 Sunrise Hwy,Amityville,11701,NY,US,40.689896,-73.408119,http://www.bk.com
250,McDonald's,Fast Food Restaurant,425 E Main St,Pickens,29671,SC,US,34.884512,-82.70476,"http://mcdonalds.com,http://www.mcdonalds.com/?cid=RF:YXT_FM:TP::Yext:Referral"
251,McDonald's,Fast Food,106 Garner Rd,Spartanburg,29303,SC,US,34.966901,-81.929552,"http://mcdonalds.com,http://www.mcdonalds.com/?cid=RF:YXT_FM:TP::Yext:Referral"
252,Burger King,Fast Food Restaurant and Burger Joint,2619 Brandermill Blvd,Gambrills,21054,MD,US,39.037925,-76.678372,http://www.bk.com
253,McDonald's,Fast Food Restaurant,613 E 4th Ave,Red Springs,28377,NC,US,34.811406,-79.174756,"http://www.mcdonalds.com,http://www.mcdonalds.com/?cid=RF:YXT_FM:TP::Yext:Referral"
254,Domino's Pizza,Fast Food Restaurants,104 School St,Glen Cove,11542,NY,US,40.8672,-73.6307,"http://www.dominos.com,https://www.dominos.com/en"
255,Dairy Queen,Ice Cream Shop and Fast Food Restaurant,2789 Interstate Highway 20,Van,75790,TX,US,32.499851,-95.596225,http://dairyqueen.com
256,Dairy Queen,Fast Food Restaurants,111 State Highway 239 E,Tivoli,77990,TX,US,28.453429,-96.888108,http://www.dairyqueen.com
257,Dairy Queen,Fast Food,1301 N Dickinson Dr,Rusk,75785,TX,US,31.802884,-95.148673,"http://www.dairyqueen.com,http://dairyqueen.com"
258,Dairy Queen,Fast Food Restaurants,300 S Main St,Borger,79007,TX,US,35.663865,-101.389964,"http://www.dairyqueen.com,http://dairyqueen.com"
259,Dairy Queen,Fast Food Restaurant,900 Highway 80,San Marcos,78666,TX,US,29.689434,-97.667085,http://www.smithdq.com
260,Dairy Queen,Fast Food Restaurant,849 E Commerce St,San Antonio,78205,TX,US,29.42306,-98.484173,"http://www.dairyqueen.com,http://dairyqueen.com"
261,Dairy Queen,Ice Cream Shop and Fast Food Restaurant,2282 SE Military Dr,San Antonio,78223,TX,US,29.351346,-98.458339,http://www.dairyqueen.com
262,Hardee's,Fast Food Restaurants,2188 Great Neck Sq,Virginia Beach,23454,VA,US,36.875281,-76.038915,http://www.hardees.com
263,Hardee's,Fast Food Restaurants,505 W 21st St,Norfolk,23517,VA,US,36.869021,-76.291956,"http://www.hardees.com,http://hardees.com"
264,Hardee's,Fast Food Restaurant,5000 W Broad St,Richmond,23230,VA,US,37.585167,-77.496783,"http://www.hardees.com,http://hardees.com"
265,Hardee's,Fast Food Restaurant,3011 Hershberger Rd NW,Roanoke,24017,VA,US,37.303452,-79.983783,http://hardees.com
266,Hardee's,Fast Food Restaurant,850 London Blvd,Portsmouth,23704,VA,US,36.836845,-76.308136,http://www.hardees.com
267,Hardee's,Fast Food Restaurant,1032 E Main St,Pulaski,24301,VA,US,37.048369,-80.759749,"http://www.hardees.com,http://api.citygridmedia.com/content/places/v2/click?q=9YKflVKbY9NauPJdMy0B1gS1IhB4xv4ESe32aGoZZfGxPUKOAupg6AXFQsvl2-A1Ztd21x5FLKumNpUzGNTBeMk2RvPjC41ZIvgiFwjULRMf936HQ-3fDilu-Jgq-3DroFPqeb7LaXUO4XtGt4yXSJsg9W4tlLVRNocJRkydaRxa9wTgFisP8W1xHayi-pt4NEM8QxC5DN9yAcVzxCCayoRId8l2FQnRrdfatL_VypMXrKvXUDW7tVUaNrnFnaeimPkDewWe1AKup_H1lVM6Zb2AfEosfJWJQ1Cvt_Hb5GsTcYuMWuTNG1w29gtGUdEsk319hZiwwW5mfxT97vji_EklrCgo6f-fGX8Dz3iqgTU3p5itbINQ6kao1MAn6iNsoDK-55jpyAGnSXHJCWdaGqtAU3jt7RlLdwrsx59JnvaD11SvRruSTClfFlNyrJV_dVaaaFKRsxvJlNnEY8bZYrjBXYqZTGnEBxerb83EB2OFQADPn65JUeQP6gwCcrH7e6Mpp6rG40NBJ8ZsRWbCZ0TeETizs8JC&placement=listing_profile.c&cs_user=unknown&cs_session=f87fe344880c9c09f08cc21db956e8497679b179"
268,Hardee's,Fast Food Restaurants,8405 Hampton Blvd,Norfolk,23505,VA,US,36.929187,-76.317875,"http://www.hardees.com,http://hardees.com"
269,Hardee's,Fast Food Restaurant,430 Denbigh Blvd,Newport News,23608,VA,US,37.131199,-76.532961,http://www.hardees.com
270,Hardee's,Fast Food Restaurant,3750 Candlers Mountain Rd,Lynchburg,24502,VA,US,37.365812,-79.172249,"http://www.hardees.com,http://hardees.com"
271,Hardee's,Fast Food Restaurant,501 S Hicks St,Lawrenceville,23868,VA,US,36.752234,-77.852597,http://hardees.com
272,Hardee's,Fast Food Restaurant,2231 Langhorne Rd,Lynchburg,24501,VA,US,37.412957,-79.173991,"http://www.hardees.com,http://hardees.com"
273,Port of Subs,Fast Food Restaurant,2310 E Overland Rd,Meridian,83642,ID,US,43.590779,-116.365124,http://www.portofsubs.com
274,Port of Subs,Fast Food,3635 S Rainbow Blvd,Las Vegas,89103,NV,US,36.121721,-115.243007,http://www.portofsubs.com
275,Port of Subs,Fast Food,8552 W Lake Mead Blvd,Las Vegas,89128,NV,US,36.1991,-115.281057,http://www.portofsubs.com
276,Port of Subs,Fast Food,9101 W Sahara Ave,Las Vegas,89117,NV,US,36.14391,-115.295979,http://www.portofsubs.com
277,Port of Subs,Fast Food Restaurants,35 Dayton Valley Rd,Dayton,89403,NV,US,39.237101,-119.58641,http://www.portofsubs.com
278,Taco Bell,Fast Food Restaurant,45201 Schoenherr Rd,Utica,48315,MI,US,42.62877,-82.993912,"http://www.tacobell.com,https://locations.tacobell.com/mi/utica/45201-schoenherr-rd-.html?utm_source=yext&utm_campaign=yextpowerlistings&utm_medium=referral&utm_term=003865&utm_content=website"
279,Taco Bell,Fast Food Restaurants,3860 S State Rd,Ann Arbor,48108,MI,US,42.230907,-83.739813,"http://www.tacobell.com,https://locations.tacobell.com/mi/ann-arbor/3860-s--state-rd-.html?utm_source=yextandutm_campaign=yextpowerlistingsandutm_medium=referralandutm_term=003836andutm_content=website,https://locations.tacobell.com/mi/ann-arbor/3860-s--state-rd-.html?utm_source=yext&utm_campaign=yextpowerlistings&utm_medium=referral&utm_term=003836&utm_content=website"
280,Taco Bell,Fast Food Restaurants,9640 Hageman Rd,Bakersfield,93312,CA,US,35.398432,-119.109364,"http://www.tacobell.com,https://locations.tacobell.com/ca/bakersfield/9640-hageman-rd-.html?utm_source=yextandutm_campaign=yextpowerlistingsandutm_medium=referralandutm_term=022460andutm_content=website"
281,Dairy Queen,Fast Food Restaurants,6255 Central Ave,Portage,46368,IN,US,41.575923,-87.173196,http://www.dairyqueen.com
282,Dairy Queen,Fast Food Restaurant,6801 Highway 41 N,Evansville,47711,IN,US,38.040812,-87.540047,http://www.dairyqueen.com
283,Dairy Queen,Ice Cream Shop and Fast Food Restaurant Christian Park,3826 English Ave,Indianapolis,46201,IN,US,39.760374,-86.101163,http://www.dairyqueen.com
284,Dairy Queen,Fast Food Restaurant and Ice Cream Shop,3303 Lincolnway E,Mishawaka,46544,IN,US,41.66294,-86.12615,"http://www.dairyqueen.com,http://dairyqueen.com"
285,Dairy Queen,Fast Food Restaurant,4830 University Dr,Evansville,47712,IN,US,37.977571,-87.634586,http://www.dairyqueen.com
286,Dairy Queen,Fast Food Restaurants,309 State Road 13 N,North Manchester,46962,IN,US,41.016468,-85.759674,http://www.dairyqueen.com
287,Dairy Queen,Fast Food Restaurants,3302 Kamer Miller Rd,New Albany,47150,IN,US,38.346607,-85.797911,http://www.dairyqueen.com
288,Taco Bell,Fast Food Restaurant,32940 Michigan Ave,Wayne,48184,MI,US,42.283657,-83.363898,"http://www.tacobell.com,https://locations.tacobell.com/mi/wayne/32940-michigan-ave.html?utm_source=yext&utm_campaign=yextpowerlistings&utm_medium=referral&utm_term=003584&utm_content=website"
289,Dairy Queen,Fast Food Restaurants,913 Charleston Ave,Mattoon,61938,IL,US,39.481538,-88.364454,http://dairyqueenmattoon.com
290,Dairy Queen,Fast Food,5636 W Irving Park Rd,Chicago,60634,IL,US,41.953301,-87.767849,"http://www.dairyqueen.com,http://www.dairyqueen.com/"
291,Dairy Queen,Fast Food Restaurant,685 W Main St,El Paso,61738,IL,US,40.737017,-89.026139,http://www.dairyqueen.com
292,Dairy Queen,Fast Food Restaurant,601 E Oak St,Mahomet,61853,IL,US,40.191908,-88.401881,http://www.dairyqueen.com
293,McDonald's,Fast Food,35 White St,Cambridge,2140,MA,US,42.389162,-71.11789,http://mcdonalds.com/
294,Milk Street Cafe,Fast Food Restaurants,50 Milk St,Boston,2109,MA,US,42.357,-71.057588,"http://milkstreetcafe.com,http://milkstreetcafe.com/,http://milkstreetcafe.com/DEFAULT.ASPX,http://www.milkstreetcafe.com"
295,McDonald's,Fast Food Restaurants,340 Longwood Ave,Boston,2115,MA,US,42.338242,-71.106394,"http://mcdonalds.com/,http://mcdonalds.com,http://www.mcdonalds.com/?cid=RF:YXT_FM:TP::Yext:Referral,http://www.mcdonalds.com"
296,Taco Bell,Fast Food Restaurant and Mexican Restaurant,2306 Dix Hwy,Lincoln Park,48146,MI,US,42.25059,-83.195322,"https://locations.tacobell.com/mi/lincoln-park/2306-dix-hwy.html?utm_source=yext&utm_campaign=yextpowerlistings&utm_medium=referral&utm_term=000848&utm_content=website,https://locations.tacobell.com/mi/lincoln-park/2306-dix-hwy.html?utm_source=yextandutm_campaign=yextpowerlistingsandutm_medium=referralandutm_term=000848andutm_content=website,http://www.tacobell.com,http://tacobell.com"
297,Taco Bell,Fast Food,1108 Lincoln Way East,Massillon,44646,OH,US,40.80019,-81.511421,https://locations.tacobell.com/oh/massillon/1108-lincoln-way-east.html?utm_source=yext&utm_campaign=yextpowerlistings&utm_medium=referral&utm_term=021275&utm_content=website
298,Taco Bell,Fast Food,705 York Road,Kings Mountain,28086,NC,US,35.231412,-81.332652,https://locations.tacobell.com/nc/kings-mountain/705-york-road.html?utm_source=yext&utm_campaign=yextpowerlistings&utm_medium=referral&utm_term=020568&utm_content=website
299,Dairy Queen,Fast Food Restaurants,401 S 2nd St,Pekin,61554,IL,US,40.566695,-89.653915,http://www.dairyqueen.com
300,Dairy Queen,Fast Food Restaurants,4204 N Sheridan Rd,Peoria,61614,IL,US,40.738856,-89.602672,http://www.dairyqueen.com
301,Pei Wei,Fast Food Restaurant,1084 S Gilbert Suite 601,Gilbert,85296,AZ,US,33.334671,-111.790032,http://www.peiwei.com
302,Dairy Queen,Fast Food Restaurant,401 S 6th St,Petersburg,62675,IL,US,40.008448,-89.848308,http://www.dairyqueen.com
303,Dairy Queen,Fast Food Restaurants,4605 E Maryland St,Decatur,62521,IL,US,39.819918,-88.883699,http://dairyqueen.com
304,Dairy Queen,Fast Food Restaurants,3106 3 Oaks Rd,Cary,60013,IL,US,42.219047,-88.258381,http://www.dairyqueen.com
305,Dairy Queen,Fast Food Restaurants,316 N Main St,Monmouth,61462,IL,US,40.914208,-90.648196,http://www.dairyqueen.com
306,Dairy Queen,Fast Food Restaurant,201 E Deyoung St,Marion,62959,IL,US,37.740923,-88.925396,http://www.dairyqueen.com
307,W.G. Grinders,Fast Food Restaurants,1453 Grandview Ave,Columbus,43212,OH,US,39.987216,-83.044532,http://www.wggrinders.com
308,Foster's Freeze,"Ice Cream Shop, Fast Food Restaurant, and Burger Joint",4967 Eagle Rock Blvd,Los Angeles,90041,CA,US,34.136803,-118.215193,"http://www.fostersfreeze.com,http://fostersfreeze.com"
309,Caseys Carry Out Pizza,Fast Food,120 N Division Ave,Polo,61064,IL,US,41.986872,-89.578918,http://www.caseys.com
310,Tastee Freez,Fast Food Restaurants,526 E Carl Albert Pkwy,McAlester,74501,OK,US,34.93126,-95.763988,"http://www.tastee-freez.com,http://www.tasteefreez.com"
311,Taco Bueno,Fast Food Restaurant,945 W Memorial Rd,Oklahoma City,73114,OK,US,35.609104,-97.529511,http://www.tacobueno.com
312,McDonald's,Fast Food Restaurants,1737 N University Ave,Lafayette,70507,LA,US,30.252668,-92.037149,"http://www.mcdonalds.com/?cid=RF:YXT_FM:TP::Yext:Referral,http://www.mcdonalds.com"
313,McDonald's,Fast Food Restaurants,249 E State St,Montrose,48457,MI,US,43.176212,-83.887437,"http://mcdonalds.com,http://www.mcdonalds.com/?cid=RF:YXT_FM:TP::Yext:Referral,http://www.mcdonalds.com"
314,Wendy's,Fast Food Restaurant,8010 Sudley Rd,Manassas,20109,VA,US,38.78166,-77.51244,"http://www.wendys.com,http://wendys.com"
315,Jimmy John's,Fast Food Restaurant,6385 Monroe St,Sylvania,43560,OH,US,41.715443,-83.698148,http://www.jimmyjohns.com
316,Subway,Fast Food Restaurants,1211 Joe Frank Harris Pkwy SE,Cartersville,30120,GA,US,34.203844,-84.809281,"http://www.subway.com,http://subway.com"
317,Subway,Fast Food Restaurants,192 Lovvorn Ave,Bowdon,30108,GA,US,33.538661,-85.251916,http://www.subway.com
318,Dairy Queen,Fast Food Restaurants,1185 Gray Hwy,Macon,31211,GA,US,32.856549,-83.616455,http://dairyqueen.com
319,Dairy Queen,Fast Food Restaurants,3156 Frontage Rd,Gainesville,30504,GA,US,34.228802,-83.864934,"https://www.dairyqueen.com/us-en/Locator/Detail/?localechange=1&store-id=4013,http://www.dairyqueen.com"
320,Dairy Queen,Fast Food Restaurants,1224 Watson Blvd,Warner Robins,31093,GA,US,32.618255,-83.618517,http://www.dairyqueen.com
321,Subway,Fast Food Restaurants,1637 Liberty Expy SE,Albany,31705,GA,US,31.499616,-84.115596,"http://www.subway.com,http://subway.com"
322,Subway,Fast Food Restaurant,1103 N Westover Blvd,Albany,31707,GA,US,31.620486,-84.220416,http://api.citygridmedia.com/content/places/v2/click?q=9YKflVKbY9NauPJdMy0B1gS1IhB4xv4EWw0zDoT-UWc_izWF3zs5PKGdfOHubWrvM0QwDCYwbOH2fdLi0dK5xArULcksCCbfR-WWAz9xD1AmGVAQZIom4U3n5R4DuRC8WJCtvJcNItEKoCSfzwapuGnmwGnHDpEGYXGjnN4u8zXqkiimSHFf4_dbqGRbVgNJGs1NFqga8pwmK-pn2Qq9v_jokkR2wabKPPKoT6JlLI_PAuPac2WJ1Ty_oy4-PQswYUVx97aUg5-INjSbuO-qUGHkO4QYzSEhbnvdm35POkONiMY8Xzz3-E1gBYZp9wRVZbEQ91t8LlHfdPywpjwh1tYWhMgel9iZEpWB9o-JLjNXC57X4-t1aJ9GZ9zhGcvg24C01QGqK_8Pa8vtqdMxVHllP0UA-qGkK1JpUIL5JejliAUXz09XgZ-S7qy9Tcho3bZyJDTSs0qDlXbGymFkKPlNIjBZn4Mw7IM7_gm27bLlIxgLH8Tg6yhFeqJ8rHLg4J5xe4Sv_Up9znBjdX3JI1IC8kknO1EA&placement=listing_profile&cs_user=unknown&cs_session=513b0ba3a549cdd9f3879dcc70b6a5cda7d5c226
323,Dairy Queen,Fast Food Restaurants,119 Atlanta St,Barnesville,30204,GA,US,33.054774,-84.15625,http://www.dairyqueen.com
324,Dairy Queen,Fast Food Restaurant,1035 Edgefield Rd,North Augusta,29860,SC,US,33.572772,-81.938715,http://dairyqueen.com
325,Hardee's,Fast Food,2500 Wilde Lake Blvd,Pensacola,32526,FL,US,30.519652,-87.314643,"http://www.hardees.com,http://www.hardees.com/,http://hardees.com"
326,Hardee's,Fast Food Restaurants,3439 Highway 77,Panama City,32405,FL,US,30.211082,-85.650126,"http://www.hardees.com,http://api.citygridmedia.com/content/places/v2/click?q=9YKflVKbY9NauPJdMy0B1gS1IhB4xv4EWw0zDoT-UWc_izWF3zs5PKGdfOHubWrvM0QwDCYwbOH2fdLi0dK5xArULcksCCbfR-WWAz9xD1AmGVAQZIom4U3n5R4DuRC8WJCtvJcNItEKoCSfzwapuGnmwGnHDpEGYXGjnN4u8zXqkiimSHFf4_dbqGRbVgNJSacVY5wO3BmhD6C52ilc0mqHYy1sDE7UH-wIb9_Z80lO4GLEAgeNauJNgaVGvWOMtTknxMrZiNZousQNajYR9B_GMF_T9EghsWxuaCJFghhejg3zyJgSi8ATwUWf6HL39Qrm0mEUhfZjEB6vjptuFgvApsKZCmXllbb0522XB3-ShGpvgVro1oK12sl1a5YGeXG7yTpUMWGDQqrVfJlsTWr5hMLEIQHDCBeQeYgSBqbJDPdDT7BBXMhTkR4jIMD_NUIfBEuAN_ejMXw_GTo04daY9KhgRE8IDmJz39BMPSZn0T0qdXQ6Hdm6Een6zI9_vdgP-SDh9LOWuDtv9p9ESYSVr5oOQb_t&placement=listing_profile&cs_user=unknown&cs_session=372705969eaf00fa09f1a35835a6756fb885fd34"
327,Dairy Queen,Fast Food,3473 Clairmont Rd NE,Atlanta,30319,GA,US,33.86021,-84.309952,http://www.dairyqueen.com/
328,Dairy Queen,Fast Food,2781 Chamblee Tucker Rd,Atlanta,30341,GA,US,33.880324,-84.275398,http://www.dairyqueen.com
329,Dairy Queen,Fast Food Restaurant,256 N Main St,Jonesboro,30236,GA,US,33.532392,-84.355959,http://www.dairyqueen.com
330,Dairy Queen,Fast Food,410 North Ave NE,Atlanta,30308,GA,US,33.771188,-84.373631,"http://www.dairyqueen.com,http://www.dairyqueen.com/"
331,Hardee's,Fast Food Restaurants,498 Busch Dr,Jacksonville,32218,FL,US,30.429273,-81.653066,http://www.hardees.com
332,Hardee's,Fast Food Restaurants,1500 Mayport Rd,Atlantic Beach,32233,FL,US,30.335676,-81.415375,http://www.hardees.com
333,Hardee's,Fast food restaurants,822 Beal Pkwy NW,Fort Walton Beach,32547,FL,US,30.44787,-86.638646,"http://www.hardees.com,http://www.hardees.com/"
334,Hardee's,Fast Food Restaurants,5425 Cotton St,Graceville,32440,FL,US,30.968267,-85.510864,"http://www.hardees.com,http://api.citygridmedia.com/content/places/v2/click?q=9YKflVKbY9NauPJdMy0B1gS1IhB4xv4ESe32aGoZZfGxPUKOAupg6AXFQsvl2-A1Ztd21x5FLKumNpUzGNTBeMk2RvPjC41ZIvgiFwjULRMf936HQ-3fDilu-Jgq-3DroFPqeb7LaXUO4XtGt4yXSJsg9W4tlLVRNocJRkydaRxa9wTgFisP8W1xHayi-pt4LmtWTaSONiNJs6UhJZXZhHK2-ud2f7ReKLUtmqNw2u5r35MmfGLAnIwqAb0KESeIDAiXXv7t0aHZzxEp-KFSqj9g_wVV8OMlXcAlqmQvj2RouNHqnAvv6Z3zHNfafbQ2HpaGZIuYt6gKT6V8THVE2BMiR_x6dy2CniM4e4Vsutm_v1uszkB1kpLV1H76gok0M1Srogglg1jDVzWvEDZ70Gv1APIMkwsnrCW7byu3XEr4bBSPuhxWhg0NNNmgbRD6qwbBRpwc9ZKAofyF3603a3fVlaYwRr129nBQaoL5gMAnf8e1mO4kPWkwriLycFdyl_gRNvknI6dgwt58Pw6rxLZI6xSQX0MI&placement=listing_profile.c&cs_user=unknown&cs_session=3cc6cda8b94a5efa83f4c7d978b3548558fb0c92"
335,Hardee's,Fast Food Restaurant,1098 W International Speedway Blvd,DeLand,32720,FL,US,29.053904,-81.324411,"http://www.hardees.com,http://hardees.com"
336,Hardee's,Fast food restaurants,7237 Milford Harrington Hwy,Harrington,19952,DE,US,38.9237,-75.56722,http://api.citygridmedia.com/content/places/v2/click?q=9YKflVKbY9NauPJdMy0B1gS1IhB4xv4ESe32aGoZZfGxPUKOAupg6AXFQsvl2-A1Ztd21x5FLKumNpUzGNTBeMk2RvPjC41ZIvgiFwjULRMf936HQ-3fDilu-Jgq-3DroFPqeb7LaXUO4XtGt4yXSJsg9W4tlLVRNocJRkydaRxa9wTgFisP8W1xHayi-pt4LmtWTaSONiNJs6UhJZXZhHK2-ud2f7ReKLUtmqNw2u5r35MmfGLAnIwqAb0KESeIDAiXXv7t0aHZzxEp-KFSqj9g_wVV8OMlXcAlqmQvj2RouNHqnAvv6Z3zHNfafbQ2HpaGZIuYt6ilK1wsL_b8oFuRZkTyZfpuRd5xDN1Qksw_-ImwfbfYP2bS0BicnrirLkKWPnGh_-HNeJZswIj2iv3dFaBniH0Sl4CKQusTB6gMgGDrL9_kb5pd6tPFDvXLP3hho2eHQqB4xL1nHnwGp-NhzrPiqkjM3ytLj8Z19NMl7iXIQzwdky2q5nk6WOZevjz5SMSQW02W93SeCQJwtYAd01VQO6jp&placement=listing_profile.c&cs_user=unknown&cs_session=8ac18bd6335ecd66387ace24dc75b47c6c76f6ff
337,Hardee's,Fast Food Restaurant,651 W Washington St,Chattahoochee,32324,FL,US,30.703743,-84.854535,http://hardees.com
338,Hardee's,Fast Food Restaurant,401 S Thompson St,Springdale,72764,AR,US,36.1825,-94.138655,http://www.hardees.com
339,Papa John's Pizza,"Pizza Place, Fast Food Restaurant, and Italian Restaurant Preston Park",4513 Williamson Rd NW,Roanoke,24012,VA,US,37.313592,-79.952038,"http://www.papajohns.com,http://www.papajohns.com/?utm_source=yextandutm_medium=directoryandutm_campaign=yext2015,http://papajohns.com"
340,Burger King,Fast Food Restaurant,631 Hogan Rd,Bangor,4401,ME,US,44.83564,-68.742387,"https://locations.bk.com/me/bangor/631-hogan-rd.html,http://www.bk.com,https://www.bk.com"
341,Papa John's Pizza,"Pizza Place, Italian Restaurant, and Fast Food Restaurant",1783 Roanoke Rd,Daleville,24083,VA,US,37.41027,-79.913083,"http://www.papajohns.com,http://papajohns.com"
342,Pizza Hut,Fast Food Restaurants,22 S State Ave,Dickinson,58601,ND,US,46.875699,-102.810832,"https://www.pizzahut.com,http://www.pizzahut.com"
343,Burger King,Fast Food Restaurant,758 W Dixie Dr,Asheboro,27205,NC,US,35.6876,-79.82614,"http://www.bk.com,https://locations.bk.com/nc/asheboro/758-west-dixie-dr.html"
344,Cook Out,Fast Food Restaurant,4505 Kester Mill Rd,Winston-Salem,27103,NC,US,36.069592,-80.334167,http://cookout.com
345,SUBWAY,Fast Food Restaurants,1641 S Jefferson Ave,Saint Louis,63104,MO,US,38.615623,-90.221252,"https://subwaystlouis.com,http://www.subway.com"
346,Krispy Krunchy Chicken,Fast Food Restaurants,1051 W Maple Ave,Eunice,70535,LA,US,30.48697,-92.42648,"http://www.krispykrunchy.com,http://www.krispykrunchy.com/?utm_source=yext&utm_medium=listing&utm_campaign=1700"
347,Hardee's/red Burrito,Fast Food Restaurant,1305 Veterans Blvd,Festus,63028,MO,US,38.21353844,-90.40835567,"http://www.hardees.com,http://hardees.com"
348,Arby's,Fast Food,13963 New Halls Ferry Rd,Florissant,63033,MO,US,38.8067,-90.297975,http://www.arbys.com
349,Lacey's On The Hill Restaurant,Fast Food Restaurants,1701 Lacey St,Cape Girardeau,63701,MO,US,37.31071,-89.53989,http://lacey.areaconnect.com
350,Dairy Queen,Fast Food Restaurants,2724 Colonel Glenn Hwy,Fairborn,45324,OH,US,39.779771,-84.050756,http://www.dairyqueen.com
351,Dairy Queen,Fast Food Restaurants,260 E Cuyahoga Falls Ave,Akron,44310,OH,US,41.108993,-81.507567,http://www.dairyqueen.com
352,Dairy Queen,Ice Cream Shop and Fast Food Restaurant,235 N Broadway St,New Philadelphia,44663,OH,US,40.492212,-81.444822,http://www.dairyqueen.com
353,Dairy Queen,Ice Cream Shop and Fast Food Restaurant,2163 Southgate Pkwy,Cambridge,43725,OH,US,40.00481,-81.575932,http://api.citygridmedia.com/content/places/v2/click?q=9YKflVKbY9NauPJdMy0B1gS1IhB4xv4EWw0zDoT-UWc_izWF3zs5PKGdfOHubWrvM0QwDCYwbOH2fdLi0dK5xArULcksCCbfR-WWAz9xD1AmGVAQZIom4U3n5R4DuRC8WJCtvJcNItEKoCSfzwapuGnmwGnHDpEGYXGjnN4u8zXqkiimSHFf4_dbqGRbVgNJnNdExlWa2ABeMm5PStmLPGLYdz0aB5QdKWOP2OX6ekyllceDy8Ijvt5mWFJHvU0-0EvEmGfb5xOEH26efxPRYmkdd6qu3jG2atDf57CIBLgJvnA4qSfRmGcS920BnqM8iD9Xo5PPDXueQzonoCqVZMEwHlu5MVmkxPKc4f5TTSjDgZDJc7QGWSVkXaPqfHEjc5bm68k8loRsaZVSNCP12akZI-2Yg9IvfW82YmOT3YILa9CG27k0XBBRypCJ_tkE2sA5uQk-doy6bTCxgFiSX5sGafs5cp6Y6nXG2kSjCrZ7-cwtt6qmmuhJaDqqSS4LhnZQe52ISSEpFe3AOPDUzbtL2OVUc2UcsLC5IpMFQoQ&placement=listing_profile&cs_user=unknown&cs_session=8270a738d95f7086feb044c195f12e7684d6ff8f
354,Arby's,Fast Food Restaurants,2399 David H Mcleod Blvd,Florence,29501,SC,US,34.18876,-79.82402,"https://locations.arbys.com/us/sc/florence/2399-david-mcleod-blvd.html,http://locations.arbys.com/us/sc/florence/2399-david-mcleod-blvd.html,http://arbys.com"
355,Arby's,Fast Food Restaurant,1420 S Irby St,Florence,29505,SC,US,34.166512,-79.763886,"https://locations.arbys.com/us/sc/florence/1420-s-irby-st.html,http://locations.arbys.com/us/sc/florence/1420-s-irby-st.html,http://arbys.com"
356,Burger King,Fast Food Restaurant and Burger Joint,35 Manchester Rd,Derry,3038,NH,US,42.900371,-71.33503,"http://bk.com,https://locations.bk.com/nh/derry/35-manchester-rd.html,http://www.bk.com"
357,McDonald's,Fast Food Restaurant,195 Woodstock Ave,Rutland,5701,VT,US,43.618244,-72.957313,"http://mcdonalds.com,http://www.mcdonalds.com/?cid=RF:YXT_FM:TP::Yext:Referral"
358,McDonald's,Fast Food,1155 N Hill Field Rd,Layton,84041,UT,US,41.077026,-111.973568,"http://mcdonalds.com,http://www.mcdonalds.com/?cid=RF:YXT_FM:TP::Yext:Referral"
359,McDonald's,Fast Food Restaurants,41 Jayview Dr,Enosburg Falls,5450,VT,US,44.913112,-72.796661,http://www.mcdonalds.com/?cid=RF:YXT_FM:TP::Yext:Referral
360,Pizza Pro,Fast Food Restaurants,6096 Highway 49,West Helena,72390,AR,US,34.549637,-90.65453,http://www.pizzapro.com
361,McDonald's,Fast Food Restaurant,155 Dorset St,South Burlington,5403,VT,US,44.464893,-73.184211,"http://mcdonalds.com,http://www.mcdonalds.com/?cid=RF:YXT_FM:TP::Yext:Referral"
362,McDonald's,Fast Food Restaurants,1125 Shelburne Rd,South Burlington,5403,VT,US,44.437629,-73.210838,"http://mcdonalds.com,http://www.mcdonalds.com/?cid=RF:YXT_FM:TP::Yext:Referral"
363,McDonald's,Fast Food Restaurant,71 Upper Main St,Essex Junction,5452,VT,US,44.507366,-73.086501,"http://mcdonalds.com,http://www.mcdonalds.com/?cid=RF:YXT_FM:TP::Yext:Referral"
364,McDonald's,Fast Food Restaurant,44 S Park Dr,Colchester,5446,VT,US,44.503345,-73.1809,"http://www.mcdonalds.com/?cid=RF:YXT_FM:TP::Yext:Referral,http://mcdonalds.com"
365,Hardee's,Fast Food Restaurant,101 Princeton Blvd,Adairsville,30103,GA,US,34.37653,-84.91442,http://www.hardees.com
366,McDonald's,Fast Food Restaurant Fairpark,916 W North Temple,Salt Lake City,84116,UT,US,40.771496,-111.917532,"http://www.mcdonalds.com/?cid=RF:YXT_FM:TP::Yext:Referral,http://mcdonalds.com"
367,McDonald's,Fast Food Restaurants,909 W Riverdale Rd,Ogden,84405,UT,US,41.178295,-112.000468,"http://www.mcdonalds.com/?cid=RF:YXT_FM:TP::Yext:Referral,http://mcdonalds.com"
368,McDonald's,Fast Food Restaurant,211 W 1230 N,Provo,84604,UT,US,40.250567,-111.662228,"http://mcdonalds.com,http://www.mcdonalds.com/?cid=RF:YXT_FM:TP::Yext:Referral"
369,McDonald's,Fast Food Restaurants,819 N Sullivan Rd,Veradale,99037,WA,US,47.664944,-117.197199,"http://mcdonalds.com,http://www.mcdonalds.com/?cid=RF:YXT_FM:TP::Yext:Referral"
370,McDonald's,Fast Food Restaurants,902 S Main St,Brigham City,84302,UT,US,41.491076,-112.016097,"http://mcdonalds.com,http://www.mcdonalds.com/?cid=RF:YXT_FM:TP::Yext:Referral"
371,McDonald's,Fast Food Restaurants,505 W Yelm Ave,Yelm,98597,WA,US,46.944589,-122.612408,"http://mcdonalds.com,http://www.mcdonalds.com/?cid=RF:YXT_FM:TP::Yext:Referral"
372,Dairy Queen,Fast Food Restaurants,2740 Laurel Park Rd,Clarksburg,26301,WV,US,39.21248,-80.37987,http://www.dairyqueen.com
373,McDonald's,Fast Food Restaurants,1600 E Chestnut Ave,Yakima,98901,WA,US,46.603108,-120.481796,"http://www.mcdonalds.com/?cid=RF:YXT_FM:TP::Yext:Referral,http://www.mcdonalds.com"
374,McDonald's,Fast Food Restaurant,5910 Summitview Ave,Yakima,98908,WA,US,46.600036,-120.586846,"http://www.mcdonalds.com/?cid=RF:YXT_FM:TP::Yext:Referral,http://mcdonalds.com,http://api.citygridmedia.com/content/places/v2/click?q=9YKflVKbY9NauPJdMy0B1gS1IhB4xv4EWw0zDoT-UWc_izWF3zs5PKGdfOHubWrvM0QwDCYwbOH2fdLi0dK5xArULcksCCbfR-WWAz9xD1AmGVAQZIom4U3n5R4DuRC8WJCtvJcNItEKoCSfzwapuGnmwGnHDpEGYXGjnN4u8zXqkiimSHFf4_dbqGRbVgNJwCgmVpEtFwgHckbmlboOzpavRE_pJ7hvrYBVWIEL71dkyxY9E-OPO4QeGAtPNgLqC1m353n6vNA5SE1Fo2eO94uJ5dvfv8QaZlxcsOn90hL3o_EExuK8DSxwSjjwcPu8eCbfWfNID0YsrNz2D48EvoXu5XldmJcHqcqfQDsm7L55VBXlU6dj2PvnakuUFWzmT4IWCj5s3MWGbTVQ0bm3xtNpKIlbEx1aSY0JaYOtPPwWei4dviZagtq7fnGUQfZ0k2oAYY-HAV3AZm03adm1xWvY8-XVquou1Ch98IUDJw7SdHonuyhyrNamWWymQxaL1_-idWATESd4NHd494T8tZQlEy-5BVED&placement=listing_profile&cs_user=unknown&cs_session=4636f6417a0c683ca32ca98dfc445e34aaa43baa"
375,McDonald's,Fast Food Restaurants,814 S 9th Ave,Walla Walla,99362,WA,US,46.056214,-118.346068,"http://www.mcdonalds.com,http://www.mcdonalds.com/?cid=RF:YXT_FM:TP::Yext:Referral"
376,McDonald's,Fast Food Restaurant,1601 Pacific Ave,Woodland,98674,WA,US,45.910773,-122.746105,"http://mcdonalds.com,http://www.mcdonalds.com/?cid=RF:YXT_FM:TP::Yext:Referral,http://api.citygridmedia.com/content/places/v2/click?q=9YKflVKbY9NauPJdMy0B1gS1IhB4xv4EGQ6wFBP1R9j_yPfgIG2qmnnU3b4EFXLWYqzqH6pileJnsDBgYjhj6412OE3eqoLyrSIPEJpXfr10mUiQbRKfZCKZytUuX1ZpMEsmU-K0mL9uCZDhf-nRxkx0xcmqFX3TZTiNoK_LLFKzM4tXpEgtM6BtXv1F1DttpQ3p9Bvj7cEgaIoo0U32uviEQwup-wmKUq3xcu2UsGN0LtZ_7JjurkbBSiu7k9yPeZx5SfLNmF-cjC_F-2S56OPFR3hKVgMnmk1Lg5xpjzNs8AfGcRVW_UInywkj4FN-6wmXpOg4LqnqLPgANdkHH8NKlLXmHJ58eKZs_nP4jWxkPxv5_Sx1lghG7KAx1KArRPlBZaMXsS_-Ute9woB8uf4VUuj6mgCPL7f0KlKUbQ0ryFpbaZplhV_RCvxIEZ4h8ot5B3Uyj7_tMGWPZHH2zoQTltUN3G-M98CafDYJIhqu--FrTB-yCgbfXbkuXprOxUp-kCdycJc9WR3NPelfZj8bw4d-VHVE&placement=listing_profile.b&cs_user=unknown&cs_session=428d063040ba0a4ab83cca0672cc286566b6ed88"
377,Cottage Inn Pizza,Fast Food Restaurants,615 E Grand River Ave,East Lansing,48823,MI,US,42.73332,-84.47609,http://www.cottageinn.com
378,Little Caesars Pizza,Fast Food,3476 Whittier Blvd,Los Angeles,90023,CA,US,34.02649,-118.19894,"http://www.littlecaesars.com,http://littlecaesars.com"
379,Burger King,Fast Food Restaurants,1084 S State Rd,Davison,48423,MI,US,43.017622,-83.517572,https://locations.bk.com/mi/davison/1084-s-state-st.html
380,Culver's,Fast food restaurants,818 N 12th St,Murray,42071,KY,US,36.6259,-88.3146,http://www.culvers.com/restaurants/murray
381,Papa John's Pizza,Fast Food Restaurants,2510 Frederica St,Owensboro,42301,KY,US,37.750815,-87.111814,http://www.papajohns.com
382,Domino's Pizza,Fast Food Restaurant,6 Orient Way,Rutherford,7070,NJ,US,40.8278,-74.1011,http://www.dominos.com
383,Runza,Fast Food Restaurant,13425 Q St,Omaha,68137,NE,US,41.205168,-96.123583,"https://www.runza.com,http://runza.com"
384,Pizza Hut,Fast Food Restaurants,1303 Bridge St,Charlevoix,49720,MI,US,45.308895,-85.258745,http://www.pizzahut.com
385,Runza,Fast Food Restaurant,816 Galvin Rd S,Bellevue,68005,NE,US,41.153051,-95.918252,http://runza.com
386,Runza,Fast Food Restaurant,640 N Park Ave,Fremont,68025,NE,US,41.435241,-96.497046,https://www.runza.com
387,Runza,Fast Food Restaurant,814 S 13th St,Norfolk,68701,NE,US,42.024188,-97.42652,"https://www.runza.com,http://runza.com"
388,Runza,Fast Food Restaurant,141 S Chestnut St,Wahoo,68066,NE,US,41.205559,-96.622673,"http://www.runza.com,http://runza.com"
389,Eudici's Pizza,Fast Food Restaurants,6893 Gratiot Rd,Saginaw,48609,MI,US,43.4156,-84.04944,"http://www.eudicipizza.com,http://eudicispizzasaginaw.com"
390,Domino's Pizza,Fast Food Restaurants,538 Livingston St,Norwood,7648,NJ,US,40.9994,-73.9537,"https://www.dominos.com/en/?redirect=homepage,https://www.dominos.com/en/?redirect=homepageandutm_source=yextandutm_medium=loclistandutm_campaign=localmaps,https://www.dominos.com/en/pages/order/menu.jsp?utm_source=locallistings&utm_medium=loclist&utm_campaign=localmaps#/menu/category/all"
391,Domino's Pizza,Fast Food Restaurants,141 Us Highway 46,Budd Lake,7828,NJ,US,40.8805,-74.7315,"https://www.dominos.com/en/?redirect=homepageandutm_source=yextandutm_medium=loclistandutm_campaign=localmaps,https://www.dominos.com/en/?redirect=homepage&utm_source=yext&utm_medium=loclist&utm_campaign=localmaps,http://www.dominos.com,https://www.dominos.com/en/pages/order/menu.jsp?utm_source=locallistings&utm_medium=loclist&utm_campaign=localmaps#/menu/category/all"
392,Sbarro,Fast Food Restaurants,4402 Baldwin Rd,Auburn Hills,48326,MI,US,42.702887,-83.306602,http://www.sbarro.com
393,McDonald's,Fast Food Restaurant,1313 N State St,Belvidere,61008,IL,US,42.269137,-88.853432,"http://www.mcdonalds.com,http://www.mcdonalds.com/?cid=RF:YXT_FM:TP::Yext:Referral"
394,McDonald's,Fast Food Restaurants,681 N 12th St,Breese,62230,IL,US,38.619582,-89.530023,"http://www.mcdonalds.com/?cid=RF:YXT_FM:TP::Yext:Referral,http://mcdonalds.com"
395,McDonald's,Fast Food Restaurants,285 N Front St,Braidwood,60408,IL,US,41.265585,-88.208353,"http://mcdonalds.com,http://www.mcdonalds.com/?cid=RF:YXT_FM:TP::Yext:Referral"
396,McDonald's,Fast Food Restaurant,100 N Bolingbrook Dr,Bolingbrook,60440,IL,US,41.698519,-88.068207,"http://mcdonalds.com,http://www.mcdonalds.com"
397,McDonald's,Fast Food Restaurant,1180 N Kinzie Ave,Bradley,60915,IL,US,41.160051,-87.851081,http://www.mcdonalds.com
398,McDonald's,Fast Food Restaurants,575 Main St NW,Bourbonnais,60914,IL,US,41.159303,-87.886347,"http://mcdonalds.com,http://www.mcdonalds.com/?cid=RF:YXT_FM:TP::Yext:Referral"
399,Pizza Hut,Fast Food Restaurants,1224 M 89,Plainwell,49080,MI,US,42.449917,-85.661605,http://www.pizzahut.com
400,McDonald's,Fast Food Restaurant,6401 Cermak Rd,Berwyn,60402,IL,US,41.850214,-87.783733,http://mcdonalds.com
401,McDonald's,Fast food restaurants,7181 Cermak Rd,Berwyn,60402,IL,US,41.849966,-87.802979,http://mcdonalds.com
402,McDonald's,Fast Food Restaurant,240 W Chrysler Dr,Belvidere,61008,IL,US,42.240066,-88.841255,http://mcdonalds.com
403,McDonald's,Fast Food,7301 Westfield Plaza Dr,Belleville,62223,IL,US,38.545182,-90.052155,"http://www.mcdonalds.com/?cid=RF:YXT_FM:TP::Yext:Referral,http://www.mcdonalds.com"
404,McDonald's,Fast Food,1023 N Lake St,Aurora,60506,IL,US,41.778876,-88.315713,http://mcdonalds.com
405,McDonald's,Fast Food,188 Fox Valley Ctr,Aurora,60504,IL,US,41.759701,-88.208402,"http://mcdonalds.com,http://www.mcdonalds.com"
406,Arby's,Fast Food,2250 US Highway 23 S,Alpena,49707,MI,US,45.044076,-83.456928,"http://www.arbys.com,https://locations.arbys.com/us/mi/alpena/2250-us-highway-23-s.html,http://locations.arbys.com/us/mi/alpena/2250-us-highway-23-s.html"
407,Dairy Queen,Fast Food Restaurants,1001 S State Ave,Alpena,49707,MI,US,45.05034,-83.445,http://www.dairyqueen.com
408,Pizza Hut,Fast Food Restaurants,3000 Maplewood Dr,Sulphur,70663,LA,US,30.227514,-93.343155,http://www.pizzahut.com
409,McDonald's,Fast Food Restaurants,1402 SE 3rd St,Aledo,61231,IL,US,41.199464,-90.733615,http://www.mcdonalds.com/?cid=RF:YXT_FM:TP::Yext:Referral
410,McDonald's,Fast Food,500 E Algonquin Rd,Algonquin,60102,IL,US,42.163979,-88.285165,"http://mcdonalds.com,http://www.mcdonalds.com/?cid=RF:YXT_FM:TP::Yext:Referral"
411,McDonald's,Fast Food Restaurant,125 S Randall Rd,Algonquin,60102,IL,US,42.173932,-88.335286,"http://mcdonalds.com,http://www.mcdonalds.com/?cid=RF:YXT_FM:TP::Yext:Referral"
412,Taco Cabana,Fast Food Restaurant,202 S Loop 336 W,Conroe,77304,TX,US,30.338972,-95.452562,http://www.tacocabana.com
413,McDonald's,Fast Food Restaurants,148 Caldwell Blvd,Nampa,83651,ID,US,43.587291,-116.575061,"http://mcdonalds.com,http://www.mcdonalds.com/?cid=RF:YXT_FM:TP::Yext:Referral"
414,Arby's,Fast Food Restaurants,6464 Siegen Ln,Baton Rouge,70809,LA,US,30.39099,-91.06156,http://arbys.com/our-menu
415,McDonald's,Fast Food Restaurants,178 S Eagle Rd,Eagle,83616,ID,US,43.693428,-116.353552,"http://www.mcdonalds.com/?cid=RF:YXT_FM:TP::Yext:Referral,http://mcdonalds.com"
416,McDonald's,Fast Food Restaurant,1335 S Washington Ave,Emmett,83617,ID,US,43.863452,-116.500085,"http://www.mcdonalds.com/?cid=RF:YXT_FM:TP::Yext:Referral,http://mcdonalds.com,http://www.mcdonalds.com"
417,Subway,Fast Food Restaurants,1750 Rostraver Rd,Belle Vernon,15012,PA,US,40.174915,-79.806673,http://www.subway.com
418,Subway,Fast Food Restaurants,2693 Brodhead Rd,Aliquippa,15001,PA,US,40.588694,-80.260898,http://www.subway.com
419,McDonald's,Fast Food Restaurants,2900 Wendell Blvd,Wendell,27591,NC,US,35.792697,-78.37903,"http://mcdonalds.com,http://www.mcdonalds.com/?cid=RF:YXT_FM:TP::Yext:Referral"
420,McDonald's,Fast Food,2900 W 5th St,Lumberton,28358,NC,US,34.62292,-79.047438,"http://mcdonalds.com,http://www.mcdonalds.com/?cid=RF:YXT_FM:TP::Yext:Referral,http://api.citygridmedia.com/content/places/v2/click?q=9YKflVKbY9NauPJdMy0B1gS1IhB4xv4EWw0zDoT-UWc_izWF3zs5PKGdfOHubWrvM0QwDCYwbOH2fdLi0dK5xArULcksCCbfR-WWAz9xD1AmGVAQZIom4U3n5R4DuRC8WJCtvJcNItEKoCSfzwapuGnmwGnHDpEGYXGjnN4u8zXqkiimSHFf4_dbqGRbVgNJduB2PR5-8Kn9snTvRvvqcIR4IwUynAAb07atX_RyMxfMgy655ChYHwtdsCHXULJvQxErd6XIUXuZUdrP4FQtwiw2GEZOgWjZWyY0ZMGJZ0gzIx-vluiuzzzrE_us9LtOQvXB0tb0B1dyLmoUWFTFDNbSjXqwPyDb8eOEIeXayhG7_oR2Db6PNXg4z5tpuw1EyNt0nkQvvIYT1JMSCQv77OSzHg92ngao_9phRRaT5nV0ZiJmmCEN55GGmepA98a5O5hFA7N3UaXgKEWZW0eCmD1boKkq-6uI9ONa__Ehew4waXWniN5WjLCLccowIBvDgBqOxQd6WKW2AuWIfhzjV0fFOhh7LOzR&placement=listing_profile&cs_user=unknown&cs_session=ba8e72486e98fc9498bcfeeb34702b3e3ffc0584"
421,Round Table Pizza,Fast Food,44204 10th St W,Lancaster,93534,CA,US,34.686106,-118.146797,http://www.roundtablepizza.com/
422,Pizza Hut,Fast Food,44836 10th St W,Lancaster,93534,CA,US,34.698297,-118.147471,"http://www.pizzahut.com,http://www.pizzahut.com/"
423,Chicken Express,Fast Food Restaurants,3820 Lamar Ave,Paris,75462,TX,US,33.66189,-95.506573,"http://www.chickene.com,http://api.citygridmedia.com/content/places/v2/click?q=9YKflVKbY9NauPJdMy0B1gS1IhB4xv4EWw0zDoT-UWc_izWF3zs5PKGdfOHubWrvM0QwDCYwbOH2fdLi0dK5xArULcksCCbfR-WWAz9xD1AmGVAQZIom4U3n5R4DuRC8WJCtvJcNItEKoCSfzwapuGnmwGnHDpEGYXGjnN4u8zXqkiimSHFf4_dbqGRbVgNJCZ-uhqCiqLo4r4RGY7PpJOxxZRUsNBYI1zsEEI6q4bwva89KDNOMXtOVeQexFQJi3UnIHm4laqpkqlIkPGzozL3d0a1ntB_mkfWwH2bqAyNQG58lnDNsTYCSEu_7Lf96UOAH0ZwslvKyLQawHy47yPXMJIbyAHhpeBWM4ndKhLMnFkVIvDhHd6usC8J3xHjxKciiAxHU-j1LMuR6ES4x_IspH5LrhZwHt4JSNlmHRWZuMdod9nbyJv7T6EZvU-A5NOpa5jbkS7lFA7tmjqF3B20lZWvlboFAjVWlAyyrNNbz8tnaVcxV9ClA25-tyVUajbfdnMTPESPSHr34KZ0o2i5EZuLleltk&placement=listing_profile&cs_user=unknown&cs_session=12e38b34970910d467cae97dca6a629b54e7f8a2"
424,Chicken Express,"Fried Chicken Joint, Fast Food Restaurant, and Food",5100 Davis Blvd,North Richland Hills,76180,TX,US,32.840958,-97.21383,http://chickene.com
425,Chicken Express,Fast Food Restaurant,904 W Eldorado Pkwy,Little Elm,75068,TX,US,33.154826,-96.946861,http://www.chickene.com
426,Chicken Express,Fast Food Restaurant,4704 4th St,Lubbock,79416,TX,US,33.59233,-101.914511,http://www.chickene.com
427,Chicken Express,Fried Chicken Joint and Fast Food Restaurant,791 Keller Pkwy,Keller,76248,TX,US,32.934361,-97.236057,"http://www.chickene.com,http://api.citygridmedia.com/content/places/v2/click?q=9YKflVKbY9NauPJdMy0B1gS1IhB4xv4EWw0zDoT-UWc_izWF3zs5PKGdfOHubWrvM0QwDCYwbOH2fdLi0dK5xArULcksCCbfR-WWAz9xD1AmGVAQZIom4U3n5R4DuRC8WJCtvJcNItEKoCSfzwapuGnmwGnHDpEGYXGjnN4u8zXqkiimSHFf4_dbqGRbVgNJh7wFlPk5k4geLW0NxBTlZtePbseR5hbJ_9AI7hpwWBSSmpPY6TfynDnh8W8ynI7GrrsWqvRHfs9nuJt_YMP3dG-E2FIZ0DMIhueOmFCUbW-NETdgV_R5mtOSbls8PR29aCWIlTn1QfF_c25rViCIFOU75BmdTMeJubzrrYJ5uIg4Wjd8DI4aPUPGyHCQQki_yKN1_dl59fmrVEbl9WnBl4V0EAmEy8ekHZII1HIYxfE6F6aSgnOTdSjq7hTFkHdi5qEUKdNkMvZqXgxo576mbIvHONdJzCh9TOT17jSbLbyphEez-5kBa3iEPJfEJBs4jiWAgFWnthy8kpgrsYcspiOKTzhsKl9x&placement=listing_profile&cs_user=unknown&cs_session=2520a8d817deecc091b69b2544ac6ff5d426a547"
428,Chicken Express,Fast Food Restaurants,305 N Rice St,Hamilton,76531,TX,US,31.721935,-98.118673,http://www.chickene.com
429,Chicken Express,Fast Food Restaurants,1108 N Grand Ave,Gainesville,76240,TX,US,33.636432,-97.133305,http://www.chickene.com
430,Chicken Express,Fast Food Restaurants,1451 E Main St,Eastland,76448,TX,US,32.401465,-98.791001,http://www.chickene.com
431,Culver's,Fast food restaurants,180 Pioneer Trl,Chaska,55318,MN,US,44.830225,-93.601813,http://www.culvers.com/restaurants/chaska
432,Jimmy John's,Fast Food Restaurant,1615 County Road 42 W,Burnsville,55306,MN,US,44.745654,-93.300905,"http://www.jimmyjohns.com,http://jimmyjohns.com"
433,McDonald's,Fast Food Restaurant,595 E Beasley Rd,Jackson,39206,MS,US,32.385437,-90.147307,http://mcdonalds.com
434,McDonald's,Fast food restaurants,970 Cedar Lake Rd,Biloxi,39532,MS,US,30.446349,-88.934148,http://mcdonalds.com
435,McDonald's,Fast Food Restaurant,9505 South Blvd,Charlotte,28273,NC,US,35.108263,-80.881511,"http://mcdonalds.com,http://www.mcdonalds.com/?cid=RF:YXT_FM:TP::Yext:Referral"
436,McDonald's,Fast Food Restaurants,937 Alabama St,Columbus,39702,MS,US,33.493277,-88.363825,http://www.mcdonalds.com/?cid=RF:YXT_FM:TP::Yext:Referral
437,McDonald's,Fast Food Restaurant,930 Mall Loop Rd,High Point,27262,NC,US,35.989293,-80.002751,"http://mcdonalds.com,http://www.mcdonalds.com/?cid=RF:YXT_FM:TP::Yext:Referral"
438,Arby's,"Fast Food Restaurant, American Restaurant, and Sandwich Place",2707 Bridge Ave,Albert Lea,56007,MN,US,43.684267,-93.359575,"http://www.arbys.com,https://locations.arbys.com/us/mn/albert-lea/2707-bridge-ave.html,http://locations.arbys.com/us/mn/albert-lea/2707-bridge-ave.html"
439,McDonald's,Fast Food Restaurant,8305 Creedmoor Rd,Raleigh,27613,NC,US,35.900308,-78.681365,"http://mcdonalds.com,http://www.mcdonalds.com/?cid=RF:YXT_FM:TP::Yext:Referral"
440,McDonald's,Fast Food Restaurant,905 Louisiana Ave,Libby,59923,MT,US,48.387043,-115.552063,"http://www.mcdonalds.com,http://www.mcdonalds.com/?cid=RF:YXT_FM:TP::Yext:Referral,http://mcdonalds.com,http://api.citygridmedia.com/content/places/v2/click?q=9YKflVKbY9NauPJdMy0B1gS1IhB4xv4EWw0zDoT-UWc_izWF3zs5PKGdfOHubWrvM0QwDCYwbOH2fdLi0dK5xArULcksCCbfR-WWAz9xD1AmGVAQZIom4U3n5R4DuRC8WJCtvJcNItEKoCSfzwapuGnmwGnHDpEGYXGjnN4u8zXqkiimSHFf4_dbqGRbVgNJ-F_qstMRQhsBvLJD0HJxkXa9jOawptPDNdvtgmCdsG3lJFD29WzTOVLw4PRMWM2omei2E2V1teqkwMcgdfaR7HjY7_d1pdROJEB-uNhXV1b9TzyEpUM42O0YA1c8APsxZMTs-cVt20hV8tQSKBjP01u0ybLOd1RwVKqhTBkbXLqivgXpb8VcRgoA8VcAmS1L_DSImL-kYp5sM1-uIzFJvZK8AP-EdzRC1Nn7UMzcCTCR-zCAus_WeXt3hCiQQw4xEJricT-ZT8gF_rIZ40KV_SJaMt2xh_psY5yDtPUudqWO-xl-3GeUVyb_vYizgLLZAFO_qfL0l0lxft5xJ2VGR7AtBbEg5Jtk&placement=listing_profile&cs_user=unknown&cs_session=97e1988c42d9b8d2ae1fedda3c4d88d8f796ad55"
441,Boomer's Drive-In,Fast Food Restaurants,310 N Samish Way,Bellingham,98225,WA,US,48.739136,-122.469467,http://www.boomersdrivein.com
442,McDonald's,Fast Food Restaurant,6724 Highway 63,Moss Point,39563,MS,US,30.438931,-88.526545,http://mcdonalds.com
443,McDonald's,Fast Food Restaurant,812 Winston Rd,Lexington,27295,NC,US,35.837287,-80.253557,"http://mcdonalds.com,http://www.mcdonalds.com/?cid=RF:YXT_FM:TP::Yext:Referral"
444,McDonald's,Fast Food Restaurant,840 S Main St,Kernersville,27284,NC,US,36.110972,-80.089276,"http://mcdonalds.com,http://www.mcdonalds.com/?cid=RF:YXT_FM:TP::Yext:Referral"
445,McDonald's,Fast Food Restaurant and Burger Joint,822 Wheat Dr,Bozeman,59715,MT,US,45.698929,-111.046744,"http://www.mcdonalds.com/?cid=RF:YXT_FM:TP::Yext:Referral,http://mcdonalds.com"
446,McDonald's,Fast Food Restaurants,717 Conover Blvd W,Conover,28613,NC,US,35.695895,-81.232175,"http://api.citygridmedia.com/content/places/v2/click?q=9YKflVKbY9NauPJdMy0B1gS1IhB4xv4EWw0zDoT-UWc_izWF3zs5PKGdfOHubWrvM0QwDCYwbOH2fdLi0dK5xArULcksCCbfR-WWAz9xD1AmGVAQZIom4U3n5R4DuRC8WJCtvJcNItEKoCSfzwapuGnmwGnHDpEGYXGjnN4u8zXqkiimSHFf4_dbqGRbVgNJR48zferMzarP6AsTik-wbz14Stq5-JuvUOj9K-Vdg942oPltjsgoX5ihb-IWkOKMma5qrHP8dVinbVBnFFr-ftV1EIt9vU_hh326qa4sn2aOCa1fzstcJVhpk078fIrIuFWHUeKwMG6GlJoNXEEyUXtM6VwATDjlZfCfioBbtnY4V61hD-n8GOKkvMDa9GJVDEJFSC0ed9vXA0eLT7yFcZPg16WtEC7iOkKXF9pBV-UChyzSPqj2usyHyxLY8KuyKVsK446YAT9mnX9rkr955Qi4kNpwhufUsenqLTLXKWDQ2A0OYJM5WLlQYBGcbRdX9HuW3m_8la77LTgMqrKKh6hZklWwIURU&placement=listing_profile&cs_user=unknown&cs_session=36a606dcfae7e551d7fab983642fc2e6013cf6f0,http://mcdonalds.com,http://www.mcdonalds.com/?cid=RF:YXT_FM:TP::Yext:Referral"
447,McDonald's,Fast Food Restaurant Heart of Missoula,720 E Broadway St,Missoula,59802,MT,US,46.869446,-113.985036,"http://www.mcdonalds.com/?cid=RF:YXT_FM:TP::Yext:Referral,http://www.mcdonalds.com"
448,McDonald's,Fast Food Restaurant,710 N Davis Ave,Cleveland,38732,MS,US,33.759524,-90.715742,"http://www.mcdonalds.com/?cid=RF:YXT_FM:TP::Yext:Referral,http://www.mcdonalds.com"
449,McDonald's,Fast Food Restaurants,692 Beach Blvd,Biloxi,39530,MS,US,30.39304,-88.884899,"http://www.mcdonalds.com,http://www.mcdonalds.com/?cid=RF:YXT_FM:TP::Yext:Referral"
450,McDonald's,Fast Food Restaurant,65 Goodman Rd W,Southaven,38671,MS,US,34.962709,-89.990486,"http://mcdonalds.com,http://www.mcdonalds.com/?cid=RF:YXT_FM:TP::Yext:Referral"
451,McDonald's,Fast Food Restaurants,706 College Rd,Greensboro,27410,NC,US,36.088625,-79.887872,"http://mcdonalds.com,http://www.mcdonalds.com/?cid=RF:YXT_FM:TP::Yext:Referral"
452,McDonald's,Fast Food Restaurants,701 Main St,Scotland Neck,27874,NC,US,36.126193,-77.423143,"http://www.mcdonalds.com/?cid=RF:YXT_FM:TP::Yext:Referral,http://mcdonalds.com"
453,McDonald's,Fast Food Restaurants,6779 Raeford Rd,Fayetteville,28304,NC,US,35.03713,-79.006832,"http://mcdonalds.com,http://www.mcdonalds.com/?cid=RF:YXT_FM:TP::Yext:Referral"
454,McDonald's,Fast Food Restaurant,6495 Us Highway 93 S,Whitefish,59937,MT,US,48.396123,-114.334756,"http://www.mcdonalds.com,http://www.mcdonalds.com/?cid=RF:YXT_FM:TP::Yext:Referral"
455,McDonald's,Fast Food Restaurants,6225 W Sugar Creek Rd,Charlotte,28269,NC,US,35.333437,-80.798965,"http://mcdonalds.com,http://www.mcdonalds.com/?cid=RF:YXT_FM:TP::Yext:Referral,http://www.mcdonalds.com"
456,McDonald's,Fast Food Restaurant and Burger Joint,6301 Albemarle Rd,Charlotte,28212,NC,US,35.203199,-80.73825,"http://mcdonalds.com,http://www.mcdonalds.com/?cid=RF:YXT_FM:TP::Yext:Referral"
457,McDonald's,Fast Food Restaurant and Gas Station,601 Jake Alexander Blvd W,Salisbury,28147,NC,US,35.661995,-80.500358,http://api.citygridmedia.com/content/places/v2/click?q=9YKflVKbY9NauPJdMy0B1gS1IhB4xv4EWw0zDoT-UWc_izWF3zs5PKGdfOHubWrvM0QwDCYwbOH2fdLi0dK5xArULcksCCbfR-WWAz9xD1AmGVAQZIom4U3n5R4DuRC8WJCtvJcNItEKoCSfzwapuGnmwGnHDpEGYXGjnN4u8zXqkiimSHFf4_dbqGRbVgNJf8vP5yY89_efjqyJ7qgjYPblVQbuQ08KEoY6rtWr8302BKlOqRZ1z-6kvDUmrvLtIh5mAHGXqdYBHAPPwKfqhrhHbfZPXcU-P1P7apL5MiTz5f9UHbXXwzJeKrklE6v_MfEQkFBRO5BcbeFz-zAzJi4KWM6JQjbUooWJMiv3xnp1LUapnH5-tuDno80jvF_D7TozVSIDaiMlBqajkZMTeIMICboafnIeXLStg6XDxrLtnib1Eh6ypsHtuViIJPzI9pewgzGVQCjxsLQGKMozHk-KYfea2we6rQgdeAraDK8-PT-y1LtCPDZV6kI459ZHv3FPPsMafwNuEnWQpHfe67wcP-bpPp5N&placement=listing_profile&cs_user=unknown&cs_session=c0123992cfc1ed01c7e41e02f50f8c20ad7aa185
458,McDonald's,Fast food restaurants,5701 Inman Rd,Greensboro,27410,NC,US,36.126014,-79.906582,"http://mcdonalds.com,http://www.mcdonalds.com/?cid=RF:YXT_FM:TP::Yext:Referral"
459,McDonald's,Fast Food Restaurant,5800 E Wt Harris Blvd,Charlotte,28215,NC,US,35.236497,-80.735822,"http://mcdonalds.com,http://www.mcdonalds.com/?cid=RF:YXT_FM:TP::Yext:Referral"
460,Hot Dog on a Stick,Fast Food,610 Great Mall Dr,Milpitas,95035,CA,US,37.419405,-121.897491,"http://www.hotdogonastick.com/,http://www.hotdogonastick.com,http://t.co/aghWfFM2Vf"
461,Hot Dog on a Stick,Fast Food Restaurants,197 Town Ctr E,Santa Maria,93454,CA,US,34.952117,-120.433482,http://www.hotdogonastick.com
462,Hot Dog on a Stick,Fast Food Restaurant,1689 Arden Way,Sacramento,95815,CA,US,38.599885,-121.427442,http://t.co/aghWfFM2Vf
463,Dunkin' Donuts,Fast Food,7602 13th Ave,Brooklyn,11228,NY,US,40.619683,-74.008071,"http://www.dunkindonuts.com,http://www.baskinrobbins.com/,http://dunkindonuts.com/,http://dunkindonuts.com"
464,Dunkin' Donuts,Fast Food,56 Court St,Brooklyn,11201,NY,US,40.692187,-73.991162,"http://www.dunkindonuts.com,http://dunkindonuts.com"
465,Arby's,Fast Food,401 N Main St,Lexington,27292,NC,US,35.826728,-80.249726,"http://www.arbys.com,http://locations.arbys.com/us/nc/lexington/401-n-main-st.html"
466,Burger King,Fast Food Restaurant,1432 Cotton Grove Rd,Lexington,27292,NC,US,35.786441,-80.261414,http://www.bk.com
467,Burger King,Fast Food,401 Lincoln Hwy,Fairview Heights,62208,IL,US,38.592706,-89.97913,"https://locations.bk.com/il/fairview-heights/401-lincoln-highway.html,https://www.bk.com"
468,Hardee's,Fast Food Restaurants,100 Plaza Sq,Park Hills,63601,MO,US,37.838741,-90.487971,http://www.hardees.com
469,Dunkin' Donuts,Fast Food,1309 Fulton St,Brooklyn,11216,NY,US,40.680355,-73.948909,"http://www.dunkindonuts.com,http://www.baskinrobbins.com/,http://dunkindonuts.com"
470,Dunkin' Donuts,Fast Food,4115 3rd Ave,Bronx,10457,NY,US,40.844458,-73.89729,"http://dunkindonuts.com/,http://dunkindonuts.com,http://www.dunkindonuts.com"
471,Dunkin' Donuts,Fast Food,3732 E Tremont Ave,Bronx,10465,NY,US,40.826478,-73.821994,"http://www.dunkindonuts.com/,http://www.dunkindonuts.com,http://dunkindonuts.com"
472,Christo's Original,Fast Food Restaurants,1500 S Main St,Lexington,27292,NC,US,35.808933,-80.27141,http://www.originalchristos.com
473,Burger King,Fast Food Restaurant and Burger Joint,7197 Charles St,Rockford,61112,IL,US,42.242137,-88.976027,"http://bk.com,https://locations.bk.com/il/rockford/7197-charles-st.html,http://www.bk.com"
474,Burger King,Fast Food Restaurants,100 Thomas Rd,West Monroe,71291,LA,US,32.517245,-92.157261,https://locations.bk.com/la/west-monroe/100-thomas-rd.html
475,Taco Bell,Fast Food Restaurant,10440 Highland Rd,Hartland,48353,MI,US,42.633792,-83.745291,"http://www.tacobell.com,http://www.tacobell.com/"
476,Burger King,"Fast Food Restaurant, Playground, and Burger Joint Northeast",1138 E State St,Rockford,61104,IL,US,42.266918,-89.078393,"http://bk.com,https://locations.bk.com/il/rockford/1138-east-state-st.html,http://www.bk.com"
477,Burger King,Fast Food Restaurant,421 N 36th St,Quincy,62301,IL,US,39.935583,-91.358298,"https://locations.bk.com/il/quincy/421-north-36th-st.html,http://www.bk.com"
478,Burger King,Fast Food Restaurant,4121 Sauk Trl,Richton Park,60471,IL,US,41.483933,-87.716547,http://bk.com
479,Burger King,Fast Food,600 S Newport Rd,Pontiac,61764,IL,US,40.873382,-88.662007,"http://www.bk.com,https://locations.bk.com/il/pontiac/600-s-newport-rd.html,https://www.bk.com"
480,Burger King,Fast Food Restaurant and Burger Joint South Newport News,10721 Jefferson Ave,Newport News,23601,VA,US,37.051114,-76.460806,http://www.bk.com
481,Burger King,Fast Food Restaurants,2901 Court St,Pekin,61554,IL,US,40.551094,-89.608403,"http://www.bk.com,https://locations.bk.com/il/pekin/2901-court-st.html"
482,Taco Bell,Fast Food,2408 Stringtown Rd,Grove City,43123,OH,US,39.881314,-83.067606,"https://locations.tacobell.com/oh/grove-city/2408-stringtown-rd.html?utm_source=yext&utm_campaign=yextpowerlistings&utm_medium=referral&utm_term=003365&utm_content=website,https://locations.tacobell.com/oh/grove-city/2408-stringtown-rd.html?utm_source=yextandutm_campaign=yextpowerlistingsandutm_medium=referralandutm_term=033773andutm_content=website,http://www.tacobell.com,https://locations.tacobell.com/oh/grove-city/2408-stringtown-rd.html?utm_source=yextandutm_campaign=yextpowerlistingsandutm_medium=referralandutm_term=003365andutm_content=website"
483,Burger King,Fast Food,1 Marquette Ave,Oglesby,61348,IL,US,41.293679,-89.071461,https://locations.bk.com/il/oglesby/1-marquette-ave.html
484,Taco Bell,Fast Food,1717 Grass Valley Hwy,Auburn,95603,CA,US,38.927033,-121.087568,"https://locations.tacobell.com/ca/auburn/1717-grass-valley-hwy.html?utm_source=yextandutm_campaign=yextpowerlistingsandutm_medium=referralandutm_term=002359andutm_content=website,https://locations.tacobell.com/ca/auburn/1717-grass-valley-hwy.html?utm_source=yext&utm_campaign=yextpowerlistings&utm_medium=referral&utm_term=002359&utm_content=website"
485,Taco Bell,Fast Food Restaurant,370 M St,Crescent City,95531,CA,US,41.755062,-124.193834,"http://www.tacobell.com,https://locations.tacobell.com/ca/crescent-city/370-m-street.html?utm_source=yextandutm_campaign=yextpowerlistingsandutm_medium=referralandutm_term=019804andutm_content=website"
486,Taco Bell,Fast Food Restaurant,2050 W Main St,Turlock,95380,CA,US,37.492303,-120.872609,http://www.tacobell.com
487,Hardee's,Fast Food Restaurants,1120 W Washington St,Marquette,49855,MI,US,46.545916,-87.420006,http://www.hardees.com
488,Taco Bell,Fast Food,2700 Geer Rd,Turlock,95382,CA,US,37.517764,-120.84839,"http://www.tacobell.com,https://locations.tacobell.com/ca/turlock/2700-geer-rd.html?utm_source=yextandutm_campaign=yextpowerlistingsandutm_medium=referralandutm_term=022190andutm_content=website"
489,Hardee's,Fast Food Restaurants,1301 S Salisbury Blvd,Salisbury,21801,MD,US,38.342966,-75.604458,http://www.hardees.com
490,Taco Bell,Fast Food,1680 Hilliard Rome Rd,Hilliard,43026,OH,US,39.985085,-83.150784,"http://www.tacobell.com,https://locations.tacobell.com/oh/hilliard/1680-hilliard-rome-rd.html?utm_source=yext&utm_campaign=yextpowerlistings&utm_medium=referral&utm_term=028224&utm_content=website,https://locations.tacobell.com/oh/hilliard/1680-hilliard-rome-rd.html?utm_source=yextandutm_campaign=yextpowerlistingsandutm_medium=referralandutm_term=028224andutm_content=website"
